stop_id,stop_name,stop_lat,stop_lon,location_type,parent_station,platform_code
9021021401015000,Ockelbo Björklunda,60.887995,16.782745,1,,
9021021401017000,Envägen,60.898597,16.739348,1,,
9021021401018000,Finnbacken,60.899179,16.760056,1,,
9021021401023000,Stenbäcken västra,60.895139,16.766586,1,,
9021021401024000,Stenbäcken östra,60.890533,16.773152,1,,
9021021401026000,Vansbron,60.886645,16.801582,1,,
9021021401028000,Vittersjö,60.879729,16.892827,1,,
9021021401035000,Bruksvägen,60.882229,16.702004,1,,
9021021401042000,Jädraås Folkets hus,60.840780,16.475762,1,,
9021021401045000,Gamla apoteket,60.896404,16.720235,1,,
9021021401049000,Gramre,60.829718,16.697649,1,,
9021021401051000,Gäveränge,60.898256,16.727658,1,,
9021021401052000,Hammarsjön,60.846518,16.706045,1,,
9021021401054000,Heden,60.785904,16.722741,1,,
9021021401060000,Ivantjärn,60.807014,16.533385,1,,
9021021401068000,Jädraås Stationen,60.842448,16.468827,1,,
9021021401070000,Långsjön,60.762080,16.746663,1,,
9021021401073000,Marstrand,60.878825,16.698429,1,,
9021021401075000,Medskogssjön,60.776050,16.726534,1,,
9021021401076000,Mejeriet,60.898585,16.720279,1,,
9021021401082000,Nyåbron,60.861131,16.699021,1,,
9021021401085000,Ockelbo station,60.891841,16.720786,1,,
9021021401086000,Ockelbo kyrka,60.886996,16.715233,1,,
9021021401089000,Rabo,60.884068,16.712958,1,,
9021021401091000,Silverkällan,60.826411,16.699745,1,,
9021021401101000,Tegelbruket,60.873855,16.702175,1,,
9021021401103000,Ockelbo Torget,60.890196,16.717129,1,,
9021021401114000,Åbrotorpen,60.813586,16.705010,1,,
9021021401122000,Lingbo station,61.044847,16.672847,1,,
9021021401131000,Stenbäcken,60.891880,16.770541,1,,
9021021401133000,Gammelboning,60.828670,16.495915,1,,
9021021401135000,Flaggbacken,60.900648,16.754130,1,,
9021021401136000,Nyflaxen,60.770497,16.734009,1,,
9021021404001000,Hofors Acktjärnsgatan,60.567608,16.278295,1,,
9021021404003000,Barkhyttan,60.564235,16.383103,1,,
9021021404004000,Berg,60.514570,16.449378,1,,
9021021404005000,Bergbo,60.515009,16.432456,1,,
9021021404006000,Björkhagsskolan,60.547231,16.276868,1,,
9021021404007000,Bergviken,60.569941,16.417980,1,,
9021021404009000,Born,60.544535,16.302667,1,,
9021021404011000,Bäcken,60.564028,16.366452,1,,
9021021404012000,Hofors Böle,60.531238,16.311243,1,,
9021021404013000,Bölevägen,60.529027,16.316855,1,,
9021021404015000,Edsken,60.542428,16.231758,1,,
9021021404016000,Erikslund,60.547391,16.475032,1,,
9021021404017000,Fagersta backe,60.526095,16.350172,1,,
9021021404018000,Fagersta by,60.525375,16.332604,1,,
9021021404019000,Faktorsgatan,60.570796,16.267527,1,,
9021021404020000,Faluvägen,60.541453,16.281376,1,,
9021021404022000,Furulund,60.541803,16.247455,1,,
9021021404023000,Göklund,60.544505,16.271216,1,,
9021021404024000,Hagaskolan,60.540750,16.292370,1,,
9021021404025000,Hantverkarn,60.547313,16.284250,1,,
9021021404026000,Hofors centrum,60.545034,16.286494,1,,
9021021404027000,Hofors station,60.569769,16.266145,1,,
9021021404028000,Hoforsbacken,60.560669,16.331774,1,,
9021021404029000,Hofors kyrka,60.550849,16.289168,1,,
9021021404032000,Idrottsvägen,60.512651,16.476336,1,,
9021021404033000,Industrigatan,60.566227,16.280755,1,,
9021021404034000,Jägargatan,60.542822,16.274909,1,,
9021021404035000,Kapellgatan,60.549573,16.287163,1,,
9021021404037000,Kvatten,60.567046,16.397284,1,,
9021021404038000,Hofors Kyrkogården,60.559169,16.291662,1,,
9021021404039000,Lillån,60.535854,16.300840,1,,
9021021404040000,Långnäs,60.525248,16.363925,1,,
9021021404041000,Långnäsheden,60.518100,16.394244,1,,
9021021404043000,Ol-Ols,60.535316,16.482944,1,,
9021021404044000,Stallbacken,60.551658,16.291294,1,,
9021021404045000,Petreskolan,60.546601,16.272303,1,,
9021021404046000,Prästbordet,60.512291,16.458289,1,,
9021021404048000,Rondellen,60.541586,16.292018,1,,
9021021404049000,Råbacka,60.515685,16.402447,1,,
9021021404050000,Rättargården,60.569390,16.408816,1,,
9021021404052000,Sibbersbo,60.562964,16.356917,1,,
9021021404053000,Signalgatan,60.569176,16.273959,1,,
9021021404054000,Silverdalen,60.533308,16.304827,1,,
9021021404056000,Skumpvägen,60.515456,16.438490,1,,
9021021404057000,Solberga,60.510046,16.462285,1,,
9021021404058000,Standarn,60.538409,16.296744,1,,
9021021404060000,Svens,60.569525,16.456651,1,,
9021021404061000,Sälgsjön,60.569878,16.450458,1,,
9021021404062000,Sälgsjönäs,60.569959,16.423871,1,,
9021021404063000,Särsta,60.516725,16.480062,1,,
9021021404064000,Särstaholm,60.531355,16.483426,1,,
9021021404067000,Skolgatan,60.545077,16.292107,1,,
9021021404068000,Tjärnäs,60.512666,16.409182,1,,
9021021404069000,Torsåker Centrum,60.510517,16.472306,1,,
9021021404073000,Wij,60.540347,16.476526,1,,
9021021404074000,Värnavägen,60.554467,16.291482,1,,
9021021404078000,Ålbron,60.556351,16.480029,1,,
9021021404103000,Hofors Hälsocentral,60.548153,16.285210,1,,
9021021404107000,Torsåker station,60.514148,16.489165,1,,
9021021404114000,Grindberget,60.510863,16.420707,1,,
9021021421001000,Lobonäs,61.533471,15.335995,1,,
9021021421003000,Lövriset,61.482203,15.431129,1,,
9021021421004000,Mattsmyra,61.494420,15.432578,1,,
9021021421006000,Blyss,61.370067,15.745730,1,,
9021021421007000,Dulsa,61.345872,15.652556,1,,
9021021421008000,Homna,61.346587,15.620843,1,,
9021021421009000,Stenkullen,61.358517,15.699824,1,,
9021021421010000,VästraHomna,61.346828,15.613965,1,,
9021021421011000,Voxnabruk,61.364396,15.511739,1,,
9021021421012000,Älmesbo vägskäl,61.354920,15.690977,1,,
9021021421013000,Älmfors,61.365502,15.732744,1,,
9021021421014000,Östra Homna,61.346612,15.640276,1,,
9021021421017000,Bergevägen,61.359795,15.895222,1,,
9021021421018000,Båta,61.352969,15.915855,1,,
9021021421019000,Celsiusskolan,61.379611,15.811292,1,,
9021021421020000,Duvberg,61.367041,15.872020,1,,
9021021421022000,Edsbyverken,61.373548,15.845178,1,,
9021021421024000,Hogatan,61.357503,15.900300,1,,
9021021421025000,Höjen,61.363734,15.908769,1,,
9021021421026000,Klon,61.348459,15.921576,1,,
9021021421027000,Soldatvägen,61.383631,15.803417,1,,
9021021421028000,Norra torget,61.384134,15.812209,1,,
9021021421029000,Nymans,61.354597,15.910440,1,,
9021021421031000,Klockarbacken,61.362810,15.895792,1,,
9021021421032000,Skidan,61.377511,15.817165,1,,
9021021421033000,Sommars,61.383828,15.821264,1,,
9021021421034000,Svenska Fönster,61.374260,15.832873,1,,
9021021421035000,Trekanten,61.380993,15.815202,1,,
9021021421037000,Edsbyn Centrum,61.376057,15.818006,1,,
9021021421038000,Alfta industricenter,61.348333,16.087644,1,,
9021021421039000,Alfta centrum,61.344622,16.063003,1,,
9021021421040000,Björkträvillan,61.339894,15.944747,1,,
9021021421041000,Bränderna,61.354119,16.097209,1,,
9021021421042000,Fiskra,61.356427,15.942278,1,,
9021021421043000,Gäddvik,61.373973,16.145944,1,,
9021021421044000,Haga,61.360998,15.929399,1,,
9021021421045000,Alfta Hemköp,61.345445,16.054751,1,,
9021021421046000,Runemo Byagården,61.356084,16.125489,1,,
9021021421047000,Kavla,61.358857,15.934662,1,,
9021021421048000,Långhed,61.391264,16.045384,1,,
9021021421049000,Malvik,61.341037,16.006777,1,,
9021021421050000,Malviksbron,61.348457,16.001704,1,,
9021021421051000,Malviksvillan,61.343978,16.014737,1,,
9021021421052000,Missionshuset,61.349066,15.982797,1,,
9021021421053000,Myra,61.351207,15.964663,1,,
9021021421055000,Nordanå,61.351402,16.050631,1,,
9021021421056000,Nordins,61.336194,15.978989,1,,
9021021421057000,Norrby såg,61.372604,16.114043,1,,
9021021421058000,Nyänget,61.347014,16.035218,1,,
9021021421059000,Nässätter,61.352184,15.957379,1,,
9021021421060000,Nöjds,61.335674,15.971309,1,,
9021021421061000,Ol-Daniels,61.347632,16.051293,1,,
9021021421062000,Alfta Kyrka,61.346668,16.072250,1,,
9021021421063000,Per-Nils,61.346651,16.155439,1,,
9021021421064000,Raskes,61.340598,16.170822,1,,
9021021421065000,Runemo,61.355986,16.136628,1,,
9021021421066000,Runemo Gård,61.344383,16.161281,1,,
9021021421067000,Runemovägen,61.372507,16.154269,1,,
9021021421068000,Rösaberg,61.337121,16.047773,1,,
9021021421069000,Stens,61.350329,16.148753,1,,
9021021421070000,Storsveden,61.347511,16.010631,1,,
9021021421071000,Sunnangården,61.340680,16.064521,1,,
9021021421072000,Talls-Olles,61.338061,16.033359,1,,
9021021421073000,Tranberg,61.353726,15.950639,1,,
9021021421074000,Viken,61.348989,15.993803,1,,
9021021421075000,Viksjöfors,61.338081,15.953836,1,,
9021021421076000,Västanå,61.346211,16.048217,1,,
9021021421077000,Blindtarmsvägen,61.337469,15.998442,1,,
9021021421078000,Önneberg,61.379860,16.087067,1,,
9021021421079000,Östanå,61.363318,15.923014,1,,
9021021421080000,Östlings,61.347216,16.081374,1,,
9021021421081000,Svabensverk,61.045060,15.794489,1,,
9021021421082000,Söderomsjön,61.312623,15.873791,1,,
9021021421089000,Ovanåker,61.362585,15.896053,1,,
9021021421090000,Per-Ols,61.364952,15.884617,1,,
9021021421091000,Born,61.373868,15.758253,1,,
9021021421092000,Trogens,61.346937,15.602099,1,,
9021021421093000,Voxna,61.343483,15.554459,1,,
9021021421095000,Borbäcken,61.350237,15.589015,1,,
9021021421096000,Kammahav,61.271341,15.893332,1,,
9021021421097000,Mållångssta,61.254169,15.886819,1,,
9021021421098000,Styggbo,61.223869,15.876468,1,,
9021021421099000,Skräddrabo,61.206696,15.871332,1,,
9021021421100000,Silfors,61.399483,16.030249,1,,
9021021421101000,Öjungsvägen,61.384053,15.810918,1,,
9021021421102000,Lilla Dalkarlsbo,61.350878,15.545224,1,,
9021021421103000,Södra Flät,61.081424,15.802536,1,,
9021021421104000,Skålsjön,61.142398,15.886535,1,,
9021021421105000,Skålsjögården,61.155779,15.884210,1,,
9021021421106000,Ramfors,61.177633,15.880956,1,,
9021021421109000,Nybro,61.362918,15.526110,1,,
9021021421110000,Lillboskolan,61.369390,15.809963,1,,
9021021421111000,Gräsheden,61.360792,15.719352,1,,
9021021421112000,Gammel-Homna,61.347421,15.674019,1,,
9021021421113000,Rävabergsvägen,61.383066,15.798441,1,,
9021021421114000,Södra torget,61.373481,15.819707,1,,
9021021421115000,Norrgårdarna södra,61.383537,15.511895,1,,
9021021421116000,Räka,61.410955,15.481585,1,,
9021021421117000,Viksjöfors skola,61.334696,15.963402,1,,
9021021421154000,Karlsvägen,61.375875,15.835792,1,,
9021021421486000,Spelmansvägen,61.374297,15.825392,1,,
9021021432001000,Vattrång,61.910718,17.187790,1,,
9021021432002000,Bringsta,61.925084,17.215553,1,,
9021021432003000,Harmånger kyrka,61.927159,17.220580,1,,
9021021432004000,Harmånger torget,61.928316,17.217130,1,,
9021021432005000,Nordanå,61.934463,17.217223,1,,
9021021432006000,Tennsätter,61.957740,17.240981,1,,
9021021432007000,Nybyn,61.963470,17.242317,1,,
9021021432008000,Dvästa,61.969342,17.241144,1,,
9021021432009000,Jättendal,61.977669,17.243863,1,,
9021021432010000,Sandbäcken,61.989976,17.240168,1,,
9021021432011000,Nyland,62.002726,17.238668,1,,
9021021432012000,Bäling,62.020911,17.252224,1,,
9021021432013000,Rödsbacken,62.036263,17.260253,1,,
9021021432016000,Gnarps kyrka,62.046646,17.255970,1,,
9021021432017000,Bergevägen,62.049051,17.254326,1,,
9021021432018000,Bergesta,62.049363,17.250249,1,,
9021021432019000,Södra vägen,62.049985,17.244829,1,,
9021021432020000,Gräftgränd,62.052271,17.244154,1,,
9021021432021000,Stjärnan,62.053344,17.240265,1,,
9021021432022000,Gnarp Vallen,62.054665,17.240920,1,,
9021021432024000,Åckne,62.056722,17.265610,1,,
9021021432025000,Gryttje,62.067959,17.284113,1,,
9021021432027000,Tjärnviksvägen,62.095149,17.306019,1,,
9021021432028000,Årskogen,62.133009,17.338278,1,,
9021021432029000,Sågtäkten,61.856840,17.305569,1,,
9021021432030000,Ringvägen,61.863929,17.312225,1,,
9021021432031000,Skogsvägen,61.866331,17.312590,1,,
9021021432032000,Strömsbruk,61.869558,17.316169,1,,
9021021432033000,Påboda,61.871757,17.326770,1,,
9021021432034000,Karelen,61.887323,17.339353,1,,
9021021432035000,Verksvägen,61.891945,17.336179,1,,
9021021432036000,Notharet,61.897172,17.333453,1,,
9021021432037000,Stocka,61.897594,17.337432,1,,
9021021432038000,Måsen,61.898084,17.345846,1,,
9021021432039000,Bergsstigen,61.898537,17.349464,1,,
9021021432040000,Rönnskär,61.898755,17.355602,1,,
9021021432041000,Harmånger station,61.907402,17.267376,1,,
9021021432042000,Bolagsgården,61.911975,17.265234,1,,
9021021432043000,Edsäter,61.915798,17.257612,1,,
9021021432044000,Mellanänget,61.918367,17.247168,1,,
9021021432045000,Stockaby,61.927152,17.232539,1,,
9021021432047000,Gällsta västra,62.042601,17.282041,1,,
9021021432048000,Husta,62.040742,17.312934,1,,
9021021432049000,Gällsta Livs,62.039829,17.316023,1,,
9021021432050000,Gällsta östra,62.038269,17.325693,1,,
9021021432051000,Bergebron,61.982675,17.067983,1,,
9021021432052000,Åkern,61.998930,17.080336,1,,
9021021432053000,Tannetjärn,62.009125,17.079368,1,,
9021021432054000,Norråsen,62.016719,17.076267,1,,
9021021432055000,Gammsätter,62.026371,17.090271,1,,
9021021432057000,Gränsfors,62.033892,17.098805,1,,
9021021432058000,Baståsen,62.036481,17.102201,1,,
9021021432059000,Västergrängsjö,62.039719,17.109086,1,,
9021021432060000,Grängsjö,62.042685,17.119056,1,,
9021021432061000,Uvberget,62.045667,17.132872,1,,
9021021432062000,Östergrängsjö,62.046375,17.144086,1,,
9021021432063000,Abrams stuga,62.049030,17.160854,1,,
9021021432064000,Svedbro,62.049508,17.171506,1,,
9021021432065000,Kärringberget,62.050664,17.178957,1,,
9021021432066000,Byn,62.052139,17.188507,1,,
9021021432067000,Ortsjövägen,62.052604,17.197649,1,,
9021021432068000,Bosta,62.051212,17.215462,1,,
9021021432069000,Ås,62.050131,17.224551,1,,
9021021432070000,Frästa,62.048940,17.234762,1,,
9021021432071000,Vallenrenen,62.050506,17.236996,1,,
9021021432072000,Sörbytjärnen,61.843632,17.035794,1,,
9021021432073000,Sörby,61.850259,17.041416,1,,
9021021432074000,Ilsbo Kyrkvägen,61.856243,17.048572,1,,
9021021432075000,Ilsbo skola,61.860351,17.049726,1,,
9021021432076000,Ilsbo-Berge,61.864231,17.050453,1,,
9021021432077000,Näset,61.869616,17.052344,1,,
9021021432078000,Norränget,61.873471,17.048813,1,,
9021021432080000,Böleberget,61.876364,17.043532,1,,
9021021432081000,Hogland,61.880687,17.038744,1,,
9021021432082000,Holsjön,61.889021,17.042122,1,,
9021021432083000,Jantes,61.892242,17.049137,1,,
9021021432084000,Vattlång,61.896369,17.052291,1,,
9021021432085000,Yttre södra,61.900937,17.051297,1,,
9021021432086000,Rolyckan,61.905749,17.049095,1,,
9021021432087000,Yttre,61.912276,17.045820,1,,
9021021432088000,Kittesjön,61.915562,17.039615,1,,
9021021432089000,Ingesarven,61.922078,17.026455,1,,
9021021432090000,Högen storavägen,61.942528,17.055791,1,,
9021021432091000,Ravik,61.941794,17.057494,1,,
9021021432092000,Högen Hånicksvägen,61.945481,17.063590,1,,
9021021432093000,Sagaliden,61.947528,17.062493,1,,
9021021432094000,Viks,61.951523,17.061323,1,,
9021021432095000,Stenbäcken,61.954318,17.061876,1,,
9021021432096000,Rönnebo,61.958187,17.062816,1,,
9021021432097000,Bålleberget,61.970175,17.056979,1,,
9021021432098000,Bergvik,61.975554,17.053614,1,,
9021021432099000,Sörgården,61.977809,17.056395,1,,
9021021432100000,Kommunkontoret,61.980136,17.059981,1,,
9021021432101000,Bergsjö kyrka,61.982522,17.063112,1,,
9021021432102000,Storgatan,61.983860,17.060992,1,,
9021021432103000,Bergsjö bstn,61.985487,17.057721,1,,
9021021432104000,Bergsjöverken,61.987670,17.034610,1,,
9021021432105000,Vade,61.992573,17.036219,1,,
9021021432106000,Hamre,61.998450,17.033364,1,,
9021021432107000,Byåkern,62.006216,17.028828,1,,
9021021432108000,Fiskvik,62.007954,17.024124,1,,
9021021432109000,Knoppevägen,62.007938,17.017747,1,,
9021021432110000,Älgeredssjön,62.005072,17.002781,1,,
9021021432111000,Sme-John,62.004449,16.991723,1,,
9021021432112000,Gröntuvan,62.004401,16.983684,1,,
9021021432113000,Älgered,62.005580,16.961070,1,,
9021021432114000,Älgereds skola,62.009161,16.951315,1,,
9021021432115000,Bygget,62.011526,16.943041,1,,
9021021432116000,Åvik,62.019362,16.928666,1,,
9021021432117000,Kramens,62.022160,16.923325,1,,
9021021432118000,Ede,62.054157,16.846756,1,,
9021021432119000,Älvsund,62.057301,16.837972,1,,
9021021432120000,Djupmyra,62.091538,16.771729,1,,
9021021432121000,Hassela badet,62.099735,16.731682,1,,
9021021432122000,Plyfavägen,62.101445,16.724227,1,,
9021021432123000,Hassela bstn,62.110203,16.706544,1,,
9021021432125000,Norrfjärden,62.060941,17.425845,1,,
9021021432126000,Sörfjärden,62.030809,17.428389,1,,
9021021432130000,Lindstagatan,61.975032,17.252321,1,,
9021021432131000,Gnarp station,62.055433,17.246445,1,,
9021021432132000,Östertjärnen,62.098114,16.751201,1,,
9021021432133000,Högen Norra,61.948938,17.061369,1,,
9021021432134000,Hassela Kyrkbyn,62.099499,16.737457,1,,
9021021432135000,Langsbo,62.095123,16.763285,1,,
9021021432136000,Bringstaskolan,61.926031,17.216758,1,,
9021021432137000,Ällvik,61.986616,17.049983,1,,
9021021432138000,Bjåstavägen,61.986231,17.036879,1,,
9021021432139000,Allmänningen,62.084942,16.797147,1,,
9021021432140000,Halls,62.087702,16.785063,1,,
9021021432141000,Vändbrovägen,62.107957,16.715173,1,,
9021021432144000,Haglocket,62.004415,16.975725,1,,
9021021432145000,Ön,61.923073,17.239926,1,,
9021021432146000,Rexforsvägen,62.048701,16.886504,1,,
9021021432147000,Nybynvägen,61.963552,17.244781,1,,
9021021432148000,Unnes,61.966666,17.249065,1,,
9021021432150000,Repslagerivägen,61.977134,17.236609,1,,
9021021432151000,Skåve,61.977914,17.221901,1,,
9021021432152000,Homons ÅVC,61.976665,17.183945,1,,
9021021432153000,Ungrik,61.976665,17.146676,1,,
9021021432154000,Bredåker,61.976233,17.129092,1,,
9021021432155000,Östra trösten,61.978638,17.117809,1,,
9021021432156000,Västra Trösten,61.982014,17.100613,1,,
9021021432157000,Östra kyrkbyn,61.982619,17.095412,1,,
9021021432159000,Bergsjö skola,61.982942,17.057387,1,,
9021021432160000,Ängebyvägen,62.044980,17.262562,1,,
9021021432161000,Gnarp skola,62.052922,17.242005,1,,
9021021432164000,Skinnarmyran,62.058444,17.398209,1,,
9021021432165000,Munkåkern,62.064493,17.279182,1,,
9021021432166000,Sörskog,62.059148,17.427203,1,,
9021021432167000,Igeltjärnen,62.066615,17.311308,1,,
9021021432168000,Milsbro,62.036282,17.348661,1,,
9021021432169000,Haddtjärn,62.062909,17.350317,1,,
9021021432171000,Ringmyran,62.060074,17.392270,1,,
9021021432172000,Lutmyran,62.062475,17.386351,1,,
9021021432173000,Haddäng,62.064156,17.359180,1,,
9021021432175000,Björnmyran,62.036202,17.353359,1,,
9021021432177000,Bruksvägen,62.058795,17.401995,1,,
9021021461001000,Stenhamre,61.805154,16.286779,1,,
9021021461002000,Gryttjesbo,61.805059,16.270222,1,,
9021021461003000,Hybovägen,61.805534,16.254091,1,,
9021021461004000,Tjärnelund,61.806529,16.243220,1,,
9021021461005000,Kullberget,61.810173,16.219753,1,,
9021021461006000,Mattssons,61.813324,16.204354,1,,
9021021461007000,Snäre,61.815639,16.194975,1,,
9021021461008000,Murs,61.818058,16.183338,1,,
9021021461009000,Bäckänge,61.819083,16.172669,1,,
9021021461010000,Julias,61.821191,16.159033,1,,
9021021461012000,Ämbarbovägen,61.825180,16.135606,1,,
9021021461013000,Furugatan,61.825619,16.128267,1,,
9021021461014000,Nor,61.664442,16.318761,1,,
9021021461015000,Nordsjö,61.712281,16.298852,1,,
9021021461016000,Onsäng,61.847033,15.975151,1,,
9021021461018000,Ljusdals kyrka,61.828806,16.072922,1,,
9021021461019000,Norehof,61.831792,16.069398,1,,
9021021461020000,Zätavägen,61.836876,16.061925,1,,
9021021461021000,Nore,61.838926,16.049507,1,,
9021021461022000,Noremon,61.839106,16.044382,1,,
9021021461023000,Måga,61.834606,16.019842,1,,
9021021461024000,Rolfhamre,61.836813,16.007841,1,,
9021021461026000,Heden,61.849734,15.995677,1,,
9021021461027000,Nyåker,61.853767,15.992644,1,,
9021021461028000,Kilen,61.858195,15.989935,1,,
9021021461029000,Strömsholm,61.862167,15.998432,1,,
9021021461030000,Tallåsens skola,61.866034,16.004784,1,,
9021021461031000,Pållamon,61.863910,15.983319,1,,
9021021461032000,Koppänge,61.871489,15.979144,1,,
9021021461033000,Skansen,61.873616,15.971325,1,,
9021021461034000,Silleråsen,61.873625,15.963913,1,,
9021021461035000,Hedsta,61.896391,15.904764,1,,
9021021461036000,Fyrs,61.901070,15.898311,1,,
9021021461037000,Västerbyn,61.908766,15.888764,1,,
9021021461038000,Letsbo,61.928883,15.873567,1,,
9021021461039000,Bäckan,62.000365,15.840822,1,,
9021021461040000,Sörvälje,62.014994,15.907839,1,,
9021021461041000,Hennan,62.023780,15.905195,1,,
9021021461042000,Väljeån,62.028148,15.908189,1,,
9021021461043000,Hälsingenybo,62.072491,15.832410,1,,
9021021461044000,Viken,62.160187,15.677008,1,,
9021021461045000,Holmsveden,62.171030,15.671742,1,,
9021021461046000,Ramsjö affären,62.183263,15.649434,1,,
9021021461047000,Vik,61.823439,16.049365,1,,
9021021461048000,Lillhälle,61.819916,16.025678,1,,
9021021461049000,Vallen,61.817336,16.017237,1,,
9021021461050000,Morvall,61.808391,15.946624,1,,
9021021461051000,Skarpå,61.807358,15.938426,1,,
9021021461052000,Ygskorset,61.801264,15.894865,1,,
9021021461053000,Mon,61.801255,15.879355,1,,
9021021461054000,Färila idrottspark,61.800442,15.889345,1,,
9021021461055000,Solgården,61.800771,15.859521,1,,
9021021461056000,Färila kyrka,61.801404,15.846514,1,,
9021021461057000,Skolvägen,61.799682,15.841298,1,,
9021021461058000,Färila,61.798256,15.838680,1,,
9021021461059000,Lillbyängarna,61.798178,15.826395,1,,
9021021461060000,Svedja,61.798519,15.819323,1,,
9021021461061000,Snasbäcken,61.802234,15.790958,1,,
9021021461075000,Lillhaga,61.828451,16.061456,1,,
9021021461076000,Rehnsvägen,61.832352,16.057616,1,,
9021021461077000,Kalvlyckan,61.832647,16.048432,1,,
9021021461079000,Krogvägen,61.809729,15.761936,1,,
9021021461080000,Korskrogen,61.810812,15.754309,1,,
9021021461081000,Hammergård,61.807762,15.736108,1,,
9021021461082000,Måns-Påls,61.805469,15.727162,1,,
9021021461083000,Davids affär,61.803644,15.720416,1,,
9021021461084000,Östra Näsberg,61.796707,15.674253,1,,
9021021461085000,Näsberg,61.797643,15.667917,1,,
9021021461086000,Västra Näsberg,61.794643,15.648822,1,,
9021021461087000,Tjärnbacka,61.733052,15.198740,1,,
9021021461088000,Los Norrbyn,61.734850,15.185611,1,,
9021021461089000,Örnbergsvägen,61.739156,15.171427,1,,
9021021461090000,Los skola,61.740442,15.166347,1,,
9021021461091000,Nickeln,61.741124,15.162473,1,,
9021021461092000,Los Gruvbyn,61.744717,15.155527,1,,
9021021461093000,Lokatten,61.732877,15.168226,1,,
9021021461095000,Los kyrkbyn,61.726222,15.172847,1,,
9021021461107000,Bryggargatan,61.824382,16.107874,1,,
9021021461108000,Enbergsgatan,61.826758,16.108770,1,,
9021021461109000,Slottegymnasiet,61.830249,16.116624,1,,
9021021461110000,Gärdeåsen,61.832710,16.115605,1,,
9021021461111000,Gärdeåsvägen,61.833662,16.107016,1,,
9021021461112000,Hantverksgården,61.827628,16.100638,1,,
9021021461116000,Kläppa Industri,61.821760,16.120751,1,,
9021021461117000,Kläppa skola,61.823193,16.113707,1,,
9021021461119000,Krukmakargatan,61.825016,16.128811,1,,
9021021461120000,Kyrksjön,61.827836,16.073540,1,,
9021021461121000,Käckabacken,61.822785,16.127478,1,,
9021021461122000,Ljusdals resecentrum,61.826583,16.098123,1,,
9021021461123000,Ljusdals boda,61.803865,16.109588,1,,
9021021461124000,Ljusdal sjukhuset,61.829250,16.109782,1,,
9021021461125000,Lock,61.807576,16.098985,1,,
9021021461126000,Myravägen,61.824363,16.135635,1,,
9021021461127000,Nordgatan,61.832399,16.097684,1,,
9021021461129000,Postplan,61.828921,16.096038,1,,
9021021461131000,Riotorget,61.829266,16.089817,1,,
9021021461132000,Sköldvägen,61.819686,16.143914,1,,
9021021461133000,Solsidevägen,61.820526,16.126468,1,,
9021021461135000,Storhaga,61.815964,16.078084,1,,
9021021461137000,Verkstadsskolevägen,61.826330,16.107229,1,,
9021021461139000,Åkersta,61.828655,16.081176,1,,
9021021461141000,Ämbarbo,61.818384,16.136615,1,,
9021021461142000,Övre Ämbarbo,61.820992,16.138047,1,,
9021021461143000,Anders-Nils,61.665087,16.153383,1,,
9021021461144000,Björa,61.656903,16.167276,1,,
9021021461145000,Järvzoo,61.712492,16.168058,1,,
9021021461146000,Ede,61.765721,16.157906,1,,
9021021461147000,Edeforsen,61.770943,16.154745,1,,
9021021461148000,Ede-gräns,61.781982,16.139294,1,,
9021021461149000,Hösäng,61.636935,16.253048,1,,
9021021461150000,Järvsöbacken,61.721645,16.167995,1,,
9021021461151000,Järvsö station,61.715453,16.171515,1,,
9021021461152000,Järvsöbaden,61.707577,16.163482,1,,
9021021461153000,Karls,61.684334,16.146534,1,,
9021021461154000,Karsjö,61.639493,16.258347,1,,
9021021461155000,Karsjö norra,61.643957,16.220211,1,,
9021021461156000,Karsjöbäcken,61.642096,16.241577,1,,
9021021461157000,Kramsta,61.695362,16.157483,1,,
9021021461158000,Kramsta hällar,61.701570,16.165000,1,,
9021021461159000,Kättingvägen,61.638336,16.241713,1,,
9021021461160000,Lassa,61.774543,16.150391,1,,
9021021461161000,Lörstrand,61.658659,16.164918,1,,
9021021461162000,Lörstrand södra,61.653419,16.171651,1,,
9021021461163000,Löräng,61.665571,16.149971,1,,
9021021461164000,Mattiassons,61.742819,16.162149,1,,
9021021461165000,Myra,61.778200,16.145051,1,,
9021021461166000,Norrvåga,61.730936,16.166704,1,,
9021021461167000,Nybo,61.671459,16.145883,1,,
9021021461168000,Nylåks,61.637428,16.266918,1,,
9021021461169000,Sandholmen,61.757485,16.160728,1,,
9021021461171000,Skästra,61.747941,16.159634,1,,
9021021461172000,Sköllingas,61.736533,16.164025,1,,
9021021461173000,Söromberget,61.788859,16.130649,1,,
9021021461174000,Tegeltjär,61.798756,16.119037,1,,
9021021461175000,Teve,61.647604,16.197468,1,,
9021021461177000,Ulfsta,61.692250,16.153348,1,,
9021021461178000,Våga,61.724945,16.168639,1,,
9021021461179000,Våxäng,61.794619,16.126900,1,,
9021021461180000,Åsgård,61.735542,16.162141,1,,
9021021461181000,Älvsätra,61.687954,16.148822,1,,
9021021461187000,Hybo,61.797115,16.192751,1,,
9021021461189000,Skräddarbacken,61.799746,16.179132,1,,
9021021461191000,Duvan,61.828857,16.092394,1,,
9021021461192000,Västra Gryttjesbo,61.805050,16.251277,1,,
9021021461193000,Färjestadsvägen,61.921991,15.875531,1,,
9021021461195000,Morvall Södra,61.810338,15.954788,1,,
9021021461196000,Hybo skola,61.795108,16.207209,1,,
9021021461198000,Skroten,61.814045,16.149922,1,,
9021021461199000,Tallvägen,62.026038,15.909347,1,,
9021021461200000,Öratjärn,61.657549,16.331028,1,,
9021021461201000,Lörstrand väg 83,61.656182,16.161700,1,,
9021021461202000,Brännas,61.835401,16.027459,1,,
9021021461203000,Hennans camping,62.017283,15.906758,1,,
9021021461205000,Herrgården,61.792746,16.214116,1,,
9021021461206000,Bryggerivägen,61.794955,16.201311,1,,
9021021461208000,Järvzoo djurpark,61.710517,16.154252,1,,
9021021461209000,Järvsöbacken skidanläggning,61.723800,16.153267,1,,
9021021461210000,Båthusvägen,62.076162,15.825909,1,,
9021021461211000,Färila Hälsocentral,61.797132,15.845732,1,,
9021021461212000,Järvsö Hälsocentral,61.712431,16.170458,1,,
9021021461214000,Bränta,61.816057,15.989759,1,,
9021021461215000,Gärdeåsskolan,61.833486,16.105667,1,,
9021021461216000,Stenhamreskolan,61.830888,16.086377,1,,
9021021461217000,Industrivägen,61.717776,16.171958,1,,
9021021461218000,Rattgatan,61.825106,16.117141,1,,
9021021461219000,Smens,61.800180,15.802354,1,,
9021021461220000,Kyrkbyvägen,61.712953,16.176817,1,,
9021021461221000,Garvarbäcken,61.631091,16.288226,1,,
9021021461222000,Stavsätter,61.823389,16.062059,1,,
9021021461252000,Grophamre,61.848651,15.987352,1,,
9021021461280000,Forsnäsetvägen,61.827598,16.036664,1,,
9021021461351000,Borrvägen,61.831350,16.046106,1,,
9021021461911000,Närområde hpl ICA Färila,61.799001,15.839041,1,,
9021021480004000,Hagsta krog,60.901834,17.013021,1,,
9021021480007000,Berg,60.402712,17.018718,1,,
9021021480008000,Berglunda,60.614275,16.957743,1,,
9021021480009000,Bullerbyn,60.564889,17.128617,1,,
9021021480010000,Byvägen,60.609579,16.900258,1,,
9021021480011000,Norra Lillängsvägen,60.405894,17.026095,1,,
9021021480012000,Stigslunds skola,60.697378,17.151705,1,,
9021021480013000,Elisabetgatan,60.616164,16.890692,1,,
9021021480014000,Finnböle,60.446294,17.152082,1,,
9021021480015000,Flaten,60.470987,17.167269,1,,
9021021480016000,Flatsjön,60.481539,17.165910,1,,
9021021480017000,Forsbacka centrum,60.613958,16.891567,1,,
9021021480018000,Storsjövägen,60.610685,16.893430,1,,
9021021480020000,Glamsen,60.571658,17.128547,1,,
9021021480021000,Grååsen,60.529905,17.142564,1,,
9021021480022000,Guldsmeden,60.655758,17.048405,1,,
9021021480026000,Hanåsen,60.581676,17.130288,1,,
9021021480027000,Hästbo,60.562506,17.126295,1,,
9021021480028000,Hästmuren,60.549264,17.126594,1,,
9021021480029000,Valbo Ikea,60.633475,16.988560,1,,
9021021480030000,Gävle Hjälpmedel SAM,60.668733,17.083224,1,,
9021021480032000,Kessmansbo,60.509292,17.160683,1,,
9021021480033000,Geodetgatan,60.640912,17.145219,1,,
9021021480035000,Sofiedalskolan,60.639647,17.006040,1,,
9021021480037000,Lergöken,60.615201,16.894349,1,,
9021021480039000,Malmberget,60.494876,17.166068,1,,
9021021480041000,Markheden,60.641865,17.005007,1,,
9021021480042000,Myråsen,60.653292,17.044342,1,,
9021021480043000,Norra Finnböle,60.450084,17.158145,1,,
9021021480044000,Skogskyrkogården,60.674405,17.105753,1,,
9021021480045000,Nybo,60.648108,17.021309,1,,
9021021480046000,Nybrovägen,60.614485,16.963667,1,,
9021021480047000,Forsbacka Ringvägen,60.618752,16.885865,1,,
9021021480048000,Rörbergsvägen,60.614820,16.971514,1,,
9021021480049000,Gävle Scandic,60.671584,17.089264,1,,
9021021480051000,Skarpnäsudden,60.615331,17.118042,1,,
9021021480052000,Skogmur,60.632915,17.122557,1,,
9021021480053000,Skottvallen,60.609382,16.908906,1,,
9021021480054000,Smäckstigen,60.648987,17.028271,1,,
9021021480056000,Solbacka,60.614500,16.937680,1,,
9021021480058000,Stenhuggarvägen,60.646148,17.013813,1,,
9021021480059000,Stigas,60.614409,16.946333,1,,
9021021480060000,Lillhagsskolan,60.675678,17.260442,1,,
9021021480061000,Sälgsjön,60.619287,17.117381,1,,
9021021480062000,Tallåsen,60.636146,16.990997,1,,
9021021480063000,Valbo köpstad,60.628758,16.987072,1,,
9021021480064000,Trollsveden,60.638187,16.994618,1,,
9021021480065000,Utfarten,60.667411,17.076915,1,,
9021021480066000,Valbo centrum,60.643498,17.009016,1,,
9021021480067000,Valbo kyrka,60.664996,17.069412,1,,
9021021480069000,Vallrundan,60.661512,17.059033,1,,
9021021480070000,Verkebro,60.519469,17.149345,1,,
9021021480071000,Vägskälet,60.487364,17.165918,1,,
9021021480072000,Värdshuset,60.610479,16.916339,1,,
9021021480073000,Åby,60.650546,17.037435,1,,
9021021480074000,Åsberga,60.543700,17.130959,1,,
9021021480075000,Åsvägen,60.659069,17.054312,1,,
9021021480076000,Ärtvreten,60.555888,17.122962,1,,
9021021480077000,Öby,60.639752,16.998367,1,,
9021021480078000,Ölbo,60.410376,17.044230,1,,
9021021480079000,Överhärde,60.616476,16.976176,1,,
9021021480080000,Överhärdeåsen,60.621652,16.979615,1,,
9021021480081000,Gefle Forum,60.659241,17.134495,1,,
9021021480084000,Aludden,60.707266,17.243735,1,,
9021021480085000,Höjersdal,60.651642,17.130507,1,,
9021021480086000,Andersberg centrum,60.651304,17.137404,1,,
9021021480087000,Arentvägen,60.721995,17.170747,1,,
9021021480088000,Arla,60.727893,17.277611,1,,
9021021480090000,Basvägen,60.672613,17.063014,1,,
9021021480091000,Beckasinvägen,60.682179,17.152900,1,,
9021021480092000,Bergby,60.928392,17.039771,1,,
9021021480093000,Bergstig,60.732341,17.123509,1,,
9021021480095000,Bjurängsvägen,60.725249,17.127287,1,,
9021021480096000,Björke,60.765909,17.190540,1,,
9021021480100000,Björsjö,60.662696,17.228103,1,,
9021021480101000,Vikingaskolan,60.662702,17.224152,1,,
9021021480102000,Blåsåsen,60.679300,17.124726,1,,
9021021480103000,Borgarskolan,60.677030,17.131916,1,,
9021021480106000,Brisgatan,60.646470,17.143311,1,,
9021021480108000,Brunnsgatan,60.669840,17.149000,1,,
9021021480109000,Sjätte Tvärgatan,60.671504,17.168262,1,,
9021021480112000,Bussplan,60.728327,17.108994,1,,
9021021480113000,Bygränsvägen,60.728791,17.171567,1,,
9021021480115000,Bäck,60.648353,16.993091,1,,
9021021480116000,Bönan,60.737554,17.308964,1,,
9021021480117000,Bönans skola,60.740497,17.308295,1,,
9021021480119000,Gävle Central,60.676040,17.151052,1,,
9021021480120000,Dimgatan,60.648605,17.130730,1,,
9021021480121000,Djuphamn,60.735775,17.300338,1,,
9021021480122000,Domargränd,60.668150,17.135740,1,,
9021021480123000,Domarringen,60.662715,17.215190,1,,
9021021480124000,Duro,60.669407,17.068908,1,,
9021021480125000,Ekvägen,60.660634,17.120652,1,,
9021021480126000,Engelbrektsgatan,60.677215,17.128611,1,,
9021021480127000,Engeltofta,60.706146,17.239363,1,,
9021021480128000,Engesberg,60.731347,17.287576,1,,
9021021480129000,Engesvik,60.733159,17.294167,1,,
9021021480130000,Sandtrappan,60.917598,17.103383,1,,
9021021480135000,Eskövägen,60.795252,17.207858,1,,
9021021480136000,Norrsundet Fabriksplan,60.937958,17.140720,1,,
9021021480137000,Fagervik,60.889412,17.121285,1,,
9021021480138000,Finntä,60.665447,17.027560,1,,
9021021480142000,Estraden,60.687104,17.127004,1,,
9021021480143000,Gävle Forsby,60.713946,17.142926,1,,
9021021480146000,Fruns hage,60.668454,17.155601,1,,
9021021480147000,Frälsningsarmén,60.917461,17.032859,1,,
9021021480149000,Furumovägen,60.697050,17.145978,1,,
9021021480152000,Fyrbovägen,60.677433,17.090467,1,,
9021021480153000,Gävle Fältspatvägen,60.685947,17.107628,1,,
9021021480155000,Gamla Bönavägen,60.704354,17.160512,1,,
9021021480157000,Gamla Ockelbovägen,60.914137,17.034151,1,,
9021021480158000,Gammelstigen,60.698766,17.167144,1,,
9021021480160000,Gavlehov,60.691433,17.135822,1,,
9021021480161000,Campus Sätra,60.690004,17.125146,1,,
9021021480162000,Golfbanan,60.699369,17.178449,1,,
9021021480164000,Granvik,60.716641,17.256649,1,,
9021021480167000,Sörby Urfjäll,60.659340,17.178008,1,,
9021021480168000,Grubban,60.747120,17.325183,1,,
9021021480170000,Gråsten,60.761363,17.326132,1,,
9021021480171000,Gråstensvägen,60.692331,17.123081,1,,
9021021480172000,Gräsharen,60.892551,17.108593,1,,
9021021480173000,Gröndal,60.720063,17.261440,1,,
9021021480176000,Gustavsbro,60.674451,17.108371,1,,
9021021480177000,Vallbacksskolan,60.668878,17.142868,1,,
9021021480178000,Maxim,60.672351,17.154575,1,,
9021021480179000,Gävle Bro,60.646077,17.127701,1,,
9021021480182000,Hagaström,60.670789,17.072822,1,,
9021021480183000,Hagaströms skola,60.673205,17.067886,1,,
9021021480184000,Hagsta,60.910494,17.035043,1,,
9021021480185000,Hammargatan,60.676390,17.178459,1,,
9021021480186000,Hamrångefjärden,60.897854,17.069232,1,,
9021021480187000,Harkskär,60.766900,17.323880,1,,
9021021480189000,Hedströms,60.918313,17.075444,1,,
9021021480190000,Bomhus centrum,60.676130,17.216509,1,,
9021021480193000,Hemsta,60.659475,17.163017,1,,
9021021480194000,Hille,60.730568,17.183831,1,,
9021021480195000,Milboskolan,60.726226,17.170413,1,,
9021021480197000,Hillevallsvägen,60.730729,17.174307,1,,
9021021480200000,Huseliiharen,60.729727,17.283084,1,,
9021021480202000,Häckelsäng,60.926225,17.057760,1,,
9021021480203000,Hällskär,60.919700,17.114402,1,,
9021021480204000,Högskolan,60.669216,17.118734,1,,
9021021480206000,Gävle Hövdingavägen,60.664861,17.228711,1,,
9021021480207000,Igeltjärn,60.686323,17.092853,1,,
9021021480209000,Iggövägen,60.850314,17.194447,1,,
9021021480211000,Gävle sjukhus ingång 31,60.680323,17.118344,1,,
9021021480213000,Iskällargatan,60.702563,17.161884,1,,
9021021480214000,Jaktstigen,60.698867,17.110988,1,,
9021021480216000,Engelska skolan,60.663502,17.155358,1,,
9021021480217000,Joakims backe,60.684640,17.138324,1,,
9021021480218000,Jonstorp,60.699988,17.189792,1,,
9021021480219000,Julsjön,60.754045,17.187754,1,,
9021021480220000,Jungfrugatan,60.676056,17.122306,1,,
9021021480226000,Järvstaängarna,60.664022,17.197559,1,,
9021021480227000,Jättendalarna,60.758571,17.188371,1,,
9021021480228000,Ångbåtsbryggan,60.749037,17.333435,1,,
9021021480229000,Karlsborg,60.675327,17.114298,1,,
9021021480231000,Katrineholm,60.873114,17.166200,1,,
9021021480232000,Klasro,60.702939,17.229477,1,,
9021021480235000,Kobacken,60.750686,17.341474,1,,
9021021480236000,Kokstensvägen,60.663157,17.209869,1,,
9021021480237000,Konserthuset,60.671521,17.132513,1,,
9021021480239000,Korpvägen,60.660064,17.143728,1,,
9021021480241000,Kristinaplan,60.664716,17.140793,1,,
9021021480242000,Krusbärsvägen,60.695261,17.093082,1,,
9021021480245000,Kullsand,60.702394,17.215608,1,,
9021021480246000,Stallplan,60.668509,17.110253,1,,
9021021480248000,Kvarnstensvändan,60.716746,17.138498,1,,
9021021480249000,Kvarnåkersvägen,60.668565,17.036898,1,,
9021021480250000,Kvistholmsvägen,60.927654,17.137984,1,,
9021021480251000,Kvistrum,60.703231,17.219674,1,,
9021021480255000,Lervik,60.697624,17.194452,1,,
9021021480256000,Lexe,60.679053,17.102152,1,,
9021021480260000,Lindesberg,60.701542,17.208685,1,,
9021021480261000,Lingvallsvägen,60.734268,17.118327,1,,
9021021480263000,Fjärran Höjder,60.667149,17.131692,1,,
9021021480265000,Fridhem,60.658468,17.127294,1,,
9021021480266000,Lottavägen,60.926704,17.031020,1,,
9021021480267000,Ludvigsberg,60.646232,17.002409,1,,
9021021480268000,Lugna gatan,60.649839,17.148387,1,,
9021021480269000,Lund,60.662458,17.020624,1,,
9021021480270000,Lundbyvägen,60.661460,17.009814,1,,
9021021480271000,Lundgrensväg,60.659614,17.009526,1,,
9021021480272000,Lundkroken,60.656186,17.007423,1,,
9021021480273000,Lyckan,60.704025,17.233737,1,,
9021021480275000,Långbacka,60.668427,17.215733,1,,
9021021480278000,Långtä,60.662671,17.023796,1,,
9021021480279000,Läkarhuset,60.677880,17.143918,1,,
9021021480282000,Gävle sjukhus ingång 25,60.678842,17.120150,1,,
9021021480283000,Hedvigslund,60.664281,17.123087,1,,
9021021480285000,Lövudden,60.680488,17.105943,1,,
9021021480287000,Marielund,60.682798,17.137644,1,,
9021021480290000,Milbostigen,60.730657,17.127784,1,,
9021021480291000,Mjölonvägen,60.691398,17.093440,1,,
9021021480292000,Totrabadet,60.916125,17.090455,1,,
9021021480294000,Myrbacka,60.670867,17.215071,1,,
9021021480302000,Nynäshallen,60.678472,17.137611,1,,
9021021480303000,Rännavägen,60.754819,17.347450,1,,
9021021480305000,Norra Åbyggeby,60.736372,17.116983,1,,
9021021480306000,Norrbacka,60.921395,17.029563,1,,
9021021480307000,Norrbro,60.822862,17.212154,1,,
9021021480308000,Norrlandsgatan,60.697790,17.164319,1,,
9021021480309000,Norrsundet centrum,60.930101,17.141111,1,,
9021021480310000,Norrtull,60.679795,17.139093,1,,
9021021480311000,Nyborg,60.713232,17.253162,1,,
9021021480312000,Nybyggarvägen,60.699647,17.149272,1,,
9021021480313000,Nygårdsbacken,60.728973,17.121868,1,,
9021021480316000,Nålgatan,60.696217,17.161818,1,,
9021021480317000,Närbogården,60.666553,17.061260,1,,
9021021480319000,Parkvägen,60.663094,17.141439,1,,
9021021480321000,Persborg,60.714439,17.254498,1,,
9021021480322000,Pliggvägen,60.674147,17.073576,1,,
9021021480323000,Polhemsskolan,60.668432,17.150643,1,,
9021021480324000,Porfyrvägen,60.689062,17.107625,1,,
9021021480326000,Prästvägen,60.716234,17.167076,1,,
9021021480327000,Ramna,60.654313,17.130872,1,,
9021021480330000,Rimfrostgatan,60.645475,17.135025,1,,
9021021480331000,Rossvallen,60.895124,17.087363,1,,
9021021480334000,Gävle Rådhuset,60.675073,17.144534,1,,
9021021480336000,Rån,60.895441,17.076654,1,,
9021021480337000,Råvägen,60.898933,17.062273,1,,
9021021480340000,Rönnvägen,60.657667,17.131156,1,,
9021021480342000,Gävle Södra Bjuräng,60.721753,17.128609,1,,
9021021480344000,Södra Slottsgatan,60.669482,17.145326,1,,
9021021480345000,Fiskar Normans väg,60.751550,17.347550,1,,
9021021480346000,Salthammar,60.923519,17.061120,1,,
9021021480349000,Silvanum,60.672057,17.126405,1,,
9021021480350000,Gävle Sjukhus Västra vägen,60.675664,17.121979,1,,
9021021480353000,Gröndalstäkten,60.722627,17.265019,1,,
9021021480354000,Sjöviksvägen,60.724378,17.268324,1,,
9021021480357000,Skolgången,60.661092,17.159390,1,,
9021021480358000,Gävle Skuggan,60.670929,17.058850,1,,
9021021480359000,Skvattramsvägen,60.699099,17.104643,1,,
9021021480360000,Skyttestigen,60.698206,17.114330,1,,
9021021480361000,Skårängsvägen,60.684449,17.124058,1,,
9021021480364000,Snäppvägen,60.685687,17.152113,1,,
9021021480366000,Solberga,60.929395,17.044015,1,,
9021021480367000,Soldatkyrkan,60.670532,17.121751,1,,
9021021480368000,Solhem,60.728029,17.111969,1,,
9021021480369000,Solklippan,60.745167,17.314491,1,,
9021021480370000,Solliden,60.726096,17.272104,1,,
9021021480371000,Soltorp,60.668994,17.049793,1,,
9021021480372000,Spikåsvägen,60.636317,16.986947,1,,
9021021480374000,Staffansplan,60.670093,17.162219,1,,
9021021480375000,Stenbäck,60.676179,17.079896,1,,
9021021480380000,Stigsgård,60.694528,17.156639,1,,
9021021480381000,Stigslund,60.695505,17.148752,1,,
9021021480383000,Stormarn,60.925448,17.134204,1,,
9021021480384000,Stormgatan,60.651262,17.152341,1,,
9021021480387000,Storvadsbro,60.906937,17.038205,1,,
9021021480388000,Strömgatan,60.700483,17.163371,1,,
9021021480389000,Strömmavägen,60.689769,17.154187,1,,
9021021480392000,Testebovallen,60.707315,17.161479,1,,
9021021480395000,Sveaborg,60.894440,17.099827,1,,
9021021480396000,Svearna,60.920607,17.068234,1,,
9021021480397000,Sågbacken,60.728523,17.114738,1,,
9021021480398000,Sågvreten,60.644487,16.976479,1,,
9021021480400000,Sätra centrum,60.692575,17.116518,1,,
9021021480401000,Södermalm,60.670773,17.148124,1,,
9021021480402000,Södertull,60.666599,17.148225,1,,
9021021480403000,Södra Åbyggeby,60.728672,17.106772,1,,
9021021480404000,Sörby,60.659859,17.149920,1,,
9021021480405000,Järnvägsmuseet,60.661221,17.176643,1,,
9021021480407000,Tallgatan,60.674098,17.170018,1,,
9021021480409000,Tallåsvägen,60.693815,17.148956,1,,
9021021480412000,Tjärdalsgatan,60.666179,17.229683,1,,
9021021480413000,Tolvfors,60.682051,17.114187,1,,
9021021480415000,Tomtnäsvägen,60.677814,17.095661,1,,
9021021480417000,Torp,60.710991,17.250405,1,,
9021021480418000,Torpstigen,60.683958,17.119261,1,,
9021021480419000,Totra,60.916750,17.084194,1,,
9021021480420000,Tranmur,60.662320,17.242280,1,,
9021021480421000,Trumslagarvägen,60.664536,17.240732,1,,
9021021480423000,Trödje,60.816820,17.211411,1,,
9021021480424000,Trödjeån,60.828669,17.210442,1,,
9021021480426000,Tröskverksvägen,60.642812,16.978063,1,,
9021021480427000,Tuvstarrvägen,60.696425,17.096186,1,,
9021021480428000,Tygelvägen,60.683975,17.111995,1,,
9021021480429000,Tångberget,60.756437,17.336227,1,,
9021021480431000,Ulvsmygen,60.696012,17.119349,1,,
9021021480432000,Ulvsätersvägen,60.691753,17.110535,1,,
9021021480433000,Urbergsterrassen,60.662276,17.142430,1,,
9021021480435000,Utjordsvägen,60.657426,17.182590,1,,
9021021480437000,Utvalnäsvägen,60.737306,17.305506,1,,
9021021480438000,Utvandrarvägen,60.733252,17.120375,1,,
9021021480441000,Varva backe,60.712456,17.165195,1,,
9021021480443000,Vasaskolan,60.677037,17.141999,1,,
9021021480444000,Hagaström vattentornet,60.669748,17.042010,1,,
9021021480445000,Vattenverket,60.691156,17.148278,1,,
9021021480446000,Vegaplan,60.676016,17.173759,1,,
9021021480447000,Verkstadsvägen,60.925502,17.027987,1,,
9021021480448000,Vikingavägen,60.664847,17.208808,1,,
9021021480450000,Vinbärsvägen,60.697680,17.090780,1,,
9021021480452000,Vretas,60.812223,17.212331,1,,
9021021480455000,Västertull,60.676877,17.125578,1,,
9021021480457000,Vätterosvägen,60.676852,17.084662,1,,
9021021480460000,Åbron,60.762705,17.188769,1,,
9021021480461000,Åbydal,60.902226,17.048822,1,,
9021021480462000,Åbyggeby,60.728628,17.126912,1,,
9021021480463000,Åbyggeby skola,60.729307,17.124429,1,,
9021021480464000,Åkertä,60.650012,16.997229,1,,
9021021480465000,Åvägen,60.711021,17.146431,1,,
9021021480467000,Ängsullsvägen,60.698031,17.099052,1,,
9021021480469000,Öhn,60.640393,16.977628,1,,
9021021480470000,Östanbäck,60.653014,17.002880,1,,
9021021480471000,Öster,60.679851,17.151394,1,,
9021021480472000,Östhagen,60.701524,17.202714,1,,
9021021480475000,Tredje Tvärgatan,60.673640,17.165644,1,,
9021021480476000,Atlasgatan,60.670648,17.180886,1,,
9021021480478000,Väpnargatan,60.672954,17.171287,1,,
9021021480479000,Depkens väg,60.676470,17.266827,1,,
9021021480480000,Eriksberg,60.671312,17.177346,1,,
9021021480481000,Fliskär,60.679137,17.216476,1,,
9021021480482000,Föreningshuset,60.685436,17.238698,1,,
9021021480483000,Graneberg,60.673432,17.266397,1,,
9021021480484000,Granudden,60.684085,17.234043,1,,
9021021480485000,Herrgårdshagen,60.670748,17.185939,1,,
9021021480486000,Holmsund,60.674728,17.229420,1,,
9021021480487000,Högsta,60.675308,17.237278,1,,
9021021480488000,Karskär,60.679742,17.264779,1,,
9021021480489000,Kastet,60.686402,17.244909,1,,
9021021480490000,Kastets såg,60.685965,17.250418,1,,
9021021480491000,Kastsjö,60.682665,17.255175,1,,
9021021480492000,Klippan,60.672681,17.205526,1,,
9021021480493000,Kontorsvägen,60.682441,17.225771,1,,
9021021480494000,Kristinelund,60.674255,17.218128,1,,
9021021480495000,Normarksvägen,60.675298,17.223023,1,,
9021021480496000,Källö,60.673121,17.211510,1,,
9021021480497000,Lillhagen,60.672650,17.257396,1,,
9021021480499000,Norelund,60.673131,17.253612,1,,
9021021480500000,Nygårdarna,60.677426,17.214461,1,,
9021021480501000,Nyvall,60.675229,17.247173,1,,
9021021480502000,Nyvallstigen,60.675325,17.242384,1,,
9021021480503000,Södra Fiskargatan,60.674386,17.157496,1,,
9021021480504000,Sjöäng,60.671508,17.199255,1,,
9021021480505000,Steneberg,60.673878,17.162488,1,,
9021021480506000,Storhagen,60.672902,17.263116,1,,
9021021480507000,Stackbo,60.613483,16.976634,1,,
9021021480508000,Motorstadion,60.595215,16.973838,1,,
9021021480509000,Valgård,60.587709,16.968932,1,,
9021021480510000,Tvea,60.578766,16.964159,1,,
9021021480511000,Tveaborg,60.572176,16.960148,1,,
9021021480512000,Skrammelåsen,60.559096,16.951095,1,,
9021021480513000,Västanås,60.552294,16.947738,1,,
9021021480514000,Lomshed,60.536678,16.944364,1,,
9021021480515000,Främlingshem,60.501148,16.938477,1,,
9021021480516000,Lindfallet,60.494261,16.937637,1,,
9021021480517000,Östanhede,60.483727,16.937234,1,,
9021021480518000,Ersbo,60.470831,16.942294,1,,
9021021480519000,Fäbodsjön,60.451287,16.959346,1,,
9021021480520000,Sällvallsvägen,60.436457,16.966794,1,,
9021021480521000,Olofsborg,60.432314,16.968390,1,,
9021021480522000,Norrgårds,60.421988,16.979059,1,,
9021021480523000,Tång,60.412216,16.986857,1,,
9021021480524000,Ås,60.405453,16.989352,1,,
9021021480525000,Normans väg,60.402708,16.991248,1,,
9021021480526000,Hedesunda rondellen,60.397648,17.004017,1,,
9021021480527000,Hedesunda,60.393632,17.006336,1,,
9021021480528000,Västbyvägen,60.384914,17.011564,1,,
9021021480529000,Hedesunda kyrka,60.377832,17.018500,1,,
9021021480530000,Sundbyvägen,60.375145,17.018818,1,,
9021021480531000,Oppåker,60.371133,17.005908,1,,
9021021480532000,Flösta,60.363180,17.004963,1,,
9021021480533000,Ålbotorp,60.346838,16.991539,1,,
9021021480534000,Ålbo,60.344520,16.986710,1,,
9021021480535000,Stridstorpet,60.342611,16.980357,1,,
9021021480536000,Baggbo,60.341288,16.965405,1,,
9021021480537000,Smedsäng,60.341799,16.946715,1,,
9021021480551000,Strömsbro skola,60.703521,17.158536,1,,
9021021480563000,Holmkanalen,60.679081,17.156577,1,,
9021021480564000,Sofia Magdalena,60.678225,17.153357,1,,
9021021480579000,Gävle Sjukhus ingång 6,60.678338,17.116616,1,,
9021021480595000,Teknikparken,60.672846,17.108178,1,,
9021021480596000,Blomsterängsvägen,60.661215,17.185971,1,,
9021021480598000,Stigshöjden,60.705697,17.149195,1,,
9021021480599000,Gävle Brynäs Centrum,60.671352,17.168127,1,,
9021021480614000,Hemlingby köpcentrum,60.646075,17.148651,1,,
9021021480627000,Triangeln,60.701612,17.151991,1,,
9021021480628000,Spängersleden,60.658797,17.155490,1,,
9021021480629000,Syrénvägen,60.664056,17.189897,1,,
9021021480631000,Tallbackens skola,60.708309,17.170588,1,,
9021021480633000,Ersbogatan,60.639686,17.128682,1,,
9021021480634000,Skomakargatan,60.675218,17.133616,1,,
9021021480635000,Lindbacka,60.707903,17.172476,1,,
9021021480636000,Hallonpasset,60.692650,17.101363,1,,
9021021480637000,Prolympia,60.689410,17.130778,1,,
9021021480638000,Grafikergatan,60.641879,17.150889,1,,
9021021480639000,Hämlingen,60.640131,17.147929,1,,
9021021480645000,Gävle sjukhus,60.677826,17.120365,1,,
9021021480646000,Nynäs,60.459775,16.946143,1,,
9021021480647000,Hjortstas,60.415998,16.984561,1,,
9021021480648000,Asfaltverket,60.608225,17.120456,1,,
9021021480649000,Lundvägen,60.654867,17.006441,1,,
9021021480650000,Skiljebro,60.651006,17.000502,1,,
9021021480651000,Norra Skeppsbron,60.676039,17.154693,1,,
9021021480652000,Bishop Hill,60.682033,17.165577,1,,
9021021480653000,Mumman,60.670346,17.156687,1,,
9021021480661000,Godisfabriken,60.677723,17.165743,1,,
9021021480662000,Tillfällig hållplats Atlasgatan,60.669152,17.180584,1,,
9021021480663000,Fjällbackens köpcentrum,60.668822,17.184741,1,,
9021021480664000,Johannes,60.635932,17.135235,1,,
9021021480669000,Nyvallen,60.333746,16.926826,1,,
9021021480677000,Klockstapeln,60.932548,17.143242,1,,
9021021480678000,Gasklockorna,60.677936,17.177409,1,,
9021021480679000,Briggen Gerda,60.678894,17.181128,1,,
9021021480680000,Plantagen (Hemsta),60.657038,17.167943,1,,
9021021480681000,Överskottsbolaget (Gävle),60.656859,17.158975,1,,
9021021480682000,Bomhus kyrka,60.682240,17.230320,1,,
9021021480684000,Owe Jansson (Valbo),60.662132,17.011943,1,,
9021021480685000,Mackmyra destilleri,60.640096,16.965262,1,,
9021021480687000,Gävle Hamn,60.697015,17.201237,1,,
9021021480694000,Gävle Strand,60.678856,17.161948,1,,
9021021480696000,Lapphällan,60.642020,17.123166,1,,
9021021480697000,Bergby skola,60.926346,17.042698,1,,
9021021480699000,Bönakrysset,60.699785,17.170245,1,,
9021021480700000,Västerbacken,60.732261,17.170138,1,,
9021021480701000,Ingenjörsgatan,60.642534,17.145488,1,,
9021021480703000,Valbo E16,60.631054,16.990262,1,,
9021021480704000,Limöbåten,60.678220,17.170650,1,,
9021021480705000,Hagelgatan,60.655069,17.148623,1,,
9021021480707000,Västbyggeby,60.642380,16.979199,1,,
9021021480709000,Valbo Hälsocentral,60.644091,17.008015,1,,
9021021480916000,Sätra C Norrbågen,60.693100,17.116027,1,,
9021021481001000,Agavägen,60.611783,16.763815,1,,
9021021481002000,Alderhulten,60.374827,16.761386,1,,
9021021481003000,Alsjövallen,60.637765,16.560619,1,,
9021021481004000,Backabron,60.660970,16.710685,1,,
9021021481005000,Vikingavägen,60.605634,16.755071,1,,
9021021481007000,Bastfallet,60.398831,16.712093,1,,
9021021481009000,Bessemergymnasiet,60.623085,16.763529,1,,
9021021481011000,Björksätra mitt,60.605952,16.750717,1,,
9021021481012000,Borrsjöån,60.605803,16.621964,1,,
9021021481013000,Ugglevägen,60.639985,16.796910,1,,
9021021481015000,Botjärn,60.762413,16.479063,1,,
9021021481016000,Sandbacka Park,60.628732,16.784452,1,,
9021021481017000,Brokvarn,60.590990,16.537210,1,,
9021021481018000,Bruket,60.614725,16.772833,1,,
9021021481019000,Burmansgatan,60.588187,16.534556,1,,
9021021481021000,Böle backe,60.656284,16.798197,1,,
9021021481024000,Dalfors,60.655334,16.508608,1,,
9021021481025000,Djupdalshagen,60.755591,16.534385,1,,
9021021481026000,Djupmurs,60.366345,16.775020,1,,
9021021481027000,Djurkliniken,60.638636,16.791258,1,,
9021021481028000,Kungsgården Ekens backe,60.607168,16.604070,1,,
9021021481029000,Enen,60.617740,16.766750,1,,
9021021481032000,Florellvägen,60.722816,16.586817,1,,
9021021481033000,Flyktbackavägen,60.606409,16.594338,1,,
9021021481035000,Frimodigs,60.689747,16.641148,1,,
9021021481038000,Gammelhammarvägen,60.632843,16.566059,1,,
9021021481039000,Gavelhyttan,60.556508,16.597098,1,,
9021021481040000,Gavelstigen,60.515679,16.736308,1,,
9021021481043000,Gläntan,60.704576,16.812009,1,,
9021021481044000,Grusåsgatan,60.609583,16.743683,1,,
9021021481045000,Gyltan,60.565792,16.488905,1,,
9021021481046000,Gysingestigen,60.298648,16.820907,1,,
9021021481047000,Gästrike Hammarby,60.543280,16.572048,1,,
9021021481048000,Hagavägen,60.543060,16.566686,1,,
9021021481049000,Hagmuren,60.657395,16.440831,1,,
9021021481050000,Halvägsbacka,60.380722,16.751550,1,,
9021021481052000,Hammarbyvägen,60.579849,16.526159,1,,
9021021481054000,Hamsas,60.679386,16.662985,1,,
9021021481056000,Hedgrind,60.599221,16.772023,1,,
9021021481057000,Hedåsbadet,60.581854,16.761999,1,,
9021021481058000,Hedåsen,60.411652,16.710307,1,,
9021021481059000,Hedåsvägen,60.600208,16.775776,1,,
9021021481060000,Herrgården,60.606647,16.629215,1,,
9021021481061000,Hillsta,60.607607,16.642312,1,,
9021021481063000,Hirkaho,60.763194,16.459193,1,,
9021021481064000,Hjortens,60.571897,16.593170,1,,
9021021481066000,Högbo kyrka,60.670698,16.809068,1,,
9021021481068000,Idrottsplan,60.663653,16.700060,1,,
9021021481070000,Industrivägen,60.623929,16.757161,1,,
9021021481071000,Jan-Ers,60.695816,16.630705,1,,
9021021481073000,Jernvallen,60.604032,16.770742,1,,
9021021481074000,Jäderfors,60.662665,16.700179,1,,
9021021481075000,Jäderfors holme,60.675031,16.667589,1,,
9021021481076000,Jäderforsgården,60.668376,16.679375,1,,
9021021481077000,Jäderfors skola,60.666158,16.686338,1,,
9021021481078000,Järbo bstn,60.715662,16.596059,1,,
9021021481079000,Järn-Nissas,60.614513,16.595960,1,,
9021021481081000,Kallhålet,60.554066,16.769418,1,,
9021021481082000,Kalvdansvägen,60.612180,16.734281,1,,
9021021481083000,Kalvsmur,60.701502,16.815081,1,,
9021021481084000,Kanalparken,60.618111,16.770085,1,,
9021021481086000,Klangberget,60.635787,16.791737,1,,
9021021481087000,Klangtorget,60.632783,16.788887,1,,
9021021481088000,Klappsta,60.312818,16.798693,1,,
9021021481089000,Kungsgården Klockargården,60.606262,16.612902,1,,
9021021481090000,Knorringsvägen,60.621480,16.609044,1,,
9021021481091000,Konsumvägen,60.642088,16.551435,1,,
9021021481092000,Kullbo,60.763498,16.468592,1,,
9021021481093000,Kung Oskar,60.576871,16.510717,1,,
9021021481094000,Kungsberg,60.762264,16.456624,1,,
9021021481095000,Kungsberget,60.762080,16.498686,1,,
9021021481096000,Kungsfors,60.759639,16.534257,1,,
9021021481098000,Kvarnåkern,60.701617,16.612561,1,,
9021021481099000,Kyrkskolan,60.305460,16.796046,1,,
9021021481100000,Kådfallet,60.710190,16.603160,1,,
9021021481101000,Källastigen,60.557711,16.543715,1,,
9021021481103000,Jäderfors Kärråsvägen,60.664573,16.691270,1,,
9021021481104000,Lappåsen,60.626849,16.573554,1,,
9021021481106000,Lem,60.582283,16.586727,1,,
9021021481108000,Lingbo,60.475537,16.712029,1,,
9021021481109000,Lingbokroken,60.461065,16.704665,1,,
9021021481111000,Ljusbrunn,60.388871,16.737713,1,,
9021021481112000,Lockropsvägen,60.612534,16.741413,1,,
9021021481114000,Långsveden,60.696607,16.627613,1,,
9021021481115000,Långängarna,60.505380,16.729224,1,,
9021021481116000,Lövbacken,60.628868,16.820393,1,,
9021021481117000,Lövstigen,60.545491,16.558999,1,,
9021021481118000,Mesosten,60.619307,16.727582,1,,
9021021481119000,Missionshuset,60.670782,16.672360,1,,
9021021481120000,Mjölkbaren,60.623536,16.781919,1,,
9021021481121000,Mom,60.603276,16.577503,1,,
9021021481122000,Movägen,60.607574,16.653376,1,,
9021021481123000,Murgårdsskolan,60.614032,16.766877,1,,
9021021481124000,Myre,60.589760,16.577327,1,,
9021021481127000,Nabben,60.642759,16.793230,1,,
9021021481128000,Niches,60.567504,16.592279,1,,
9021021481129000,Nor,60.560283,16.596096,1,,
9021021481130000,Norrberg,60.623658,16.612587,1,,
9021021481131000,Norrby,60.745376,16.544532,1,,
9021021481132000,Norrsätra,60.625554,16.753299,1,,
9021021481133000,Tallhöjden,60.625320,16.745784,1,,
9021021481134000,Nygårds,60.687318,16.647784,1,,
9021021481135000,Nyhem,60.645415,16.794481,1,,
9021021481136000,Nyvägen,60.667547,16.683925,1,,
9021021481137000,Näs,60.571824,16.536449,1,,
9021021481138000,Odengatan,60.622083,16.775519,1,,
9021021481139000,Offsalas,60.578892,16.591023,1,,
9021021481140000,Orrvägen,60.637926,16.796171,1,,
9021021481141000,Oxbacksmuren,60.617101,16.727373,1,,
9021021481144000,Per-Lars,60.749335,16.537783,1,,
9021021481145000,Pers,60.688492,16.322089,1,,
9021021481146000,Plangatan,60.620189,16.773161,1,,
9021021481150000,Promenaden,60.620020,16.761685,1,,
9021021481151000,Prästtäkten,60.761959,16.525137,1,,
9021021481152000,Rasbo,60.331626,16.794557,1,,
9021021481154000,Ringhillsta,60.607142,16.633464,1,,
9021021481155000,Rökebo,60.683427,16.814918,1,,
9021021481156000,Södra Åmotanvägen,60.654701,16.497404,1,,
9021021481158000,Sandavägen,60.301631,16.799114,1,,
9021021481159000,Sandbacka,60.626856,16.784523,1,,
9021021481162000,Sandslingan,60.606751,16.741848,1,,
9021021481163000,Sandvikenhus,60.603289,16.742716,1,,
9021021481164000,Scherpbacken,60.622394,16.736840,1,,
9021021481165000,Hedåsstrand,60.585316,16.763543,1,,
9021021481166000,Seglargatan,60.604028,16.778775,1,,
9021021481167000,Seljansborg,60.605422,16.772171,1,,
9021021481169000,Seestaden,60.609658,16.767258,1,,
9021021481171000,Silverslingan,60.601473,16.744379,1,,
9021021481172000,Sixbo,60.359264,16.776115,1,,
9021021481173000,Sandviken sjukhuset,60.609051,16.761726,1,,
9021021481174000,Sjövik,60.526683,16.745384,1,,
9021021481175000,Skogsbo,60.679831,16.360266,1,,
9021021481176000,Skogsfrugården,60.622761,16.748431,1,,
9021021481177000,Skönvik,60.712354,16.806555,1,,
9021021481178000,Slingan,60.546599,16.572473,1,,
9021021481179000,Järbo Smalåsen,60.727472,16.573039,1,,
9021021481180000,Smassens,60.598904,16.752336,1,,
9021021481181000,Smassenskola,60.599714,16.746957,1,,
9021021481182000,Smeds,60.731014,16.561009,1,,
9021021481184000,Smultronet,60.612953,16.746977,1,,
9021021481185000,Smörhålet,60.707122,16.607461,1,,
9021021481186000,Solliden,60.300451,16.805643,1,,
9021021481187000,Spadvägen,60.661829,16.705734,1,,
9021021481188000,Spjutmuren,60.604274,16.584939,1,,
9021021481189000,Stabäck,60.729007,16.782936,1,,
9021021481191000,Stationsvägen,60.644942,16.543513,1,,
9021021481194000,Stigen,60.620972,16.703154,1,,
9021021481195000,Stocksbo,60.683717,16.345034,1,,
9021021481196000,Stormuren,60.654912,16.718469,1,,
9021021481197000,Storvik Centralvägen,60.583453,16.528648,1,,
9021021481198000,Stängselvägen,60.642197,16.802498,1,,
9021021481199000,Svartanbro,60.449087,16.693269,1,,
9021021481200000,Svibacka,60.640545,16.802556,1,,
9021021481201000,Swinghuset,60.634981,16.787857,1,,
9021021481202000,Sågen,60.651022,16.526211,1,,
9021021481204000,Säljan,60.592033,16.746624,1,,
9021021481206000,Sörtuttsbadet,60.576748,16.760553,1,,
9021021481207000,Tallbacksgården,60.623586,16.756201,1,,
9021021481208000,Tallbacksvägen,60.625755,16.747715,1,,
9021021481209000,Tallheden,60.674944,16.811469,1,,
9021021481210000,Tegelbruket,60.569755,16.493237,1,,
9021021481211000,Teglas,60.655270,16.513945,1,,
9021021481212000,Texaco,60.647643,16.536957,1,,
9021021481213000,Tingstapussen,60.317394,16.798941,1,,
9021021481214000,Tomtas,60.740585,16.550619,1,,
9021021481215000,Tomtgatan,60.646309,16.804745,1,,
9021021481216000,Torgbacken,60.607489,16.601321,1,,
9021021481217000,Trebo,60.590197,16.767574,1,,
9021021481218000,Gammelstillavägen,60.427025,16.691906,1,,
9021021481219000,Trösken,60.452950,16.704732,1,,
9021021481220000,Täkten,60.763135,16.513312,1,,
9021021481222000,Uppströmsvägen,60.549135,16.582520,1,,
9021021481223000,Urforsvägen,60.635350,16.562372,1,,
9021021481225000,Årsunda kyrka,60.521982,16.739858,1,,
9021021481229000,Vallpojken,60.619862,16.734392,1,,
9021021481230000,Valsargatan,60.621717,16.748876,1,,
9021021481231000,Varva,60.320972,16.799375,1,,
9021021481232000,Vassviken,60.625010,16.866601,1,,
9021021481233000,Vattan,60.672453,16.385971,1,,
9021021481234000,Vattenverket,60.688994,16.814543,1,,
9021021481235000,Vallhov,60.619318,16.739071,1,,
9021021481236000,Vista,60.326307,16.797763,1,,
9021021481238000,BJ-Arena,60.610267,16.748469,1,,
9021021481240000,Västanbygården,60.644542,16.798476,1,,
9021021481241000,Västanfäbodarna,60.758788,16.755280,1,,
9021021481242000,Västanås,60.659637,16.798739,1,,
9021021481243000,Västerberg,60.596480,16.550913,1,,
9021021481244000,Västerled 110,60.603399,16.755115,1,,
9021021481245000,Västerled 82,60.607874,16.753055,1,,
9021021481246000,Västra Vägen,60.544569,16.564845,1,,
9021021481247000,Yttermyra,60.594371,16.580868,1,,
9021021481248000,Årsunda Sörby,60.512010,16.732234,1,,
9021021481249000,Åsen,60.610449,16.603110,1,,
9021021481251000,Åsgården,60.719349,16.591753,1,,
9021021481253000,Åshammar centrum,60.640664,16.555716,1,,
9021021481254000,Åttersta,60.621744,16.584155,1,,
9021021481258000,Örtagården,60.607971,16.762242,1,,
9021021481259000,Östanbyn,60.647728,16.812942,1,,
9021021481260000,Östanå,60.626759,16.807265,1,,
9021021481261000,Österbor,60.353200,16.780536,1,,
9021021481262000,Österfärnebo,60.309566,16.797835,1,,
9021021481263000,Österfärnebo kyrka,60.303288,16.794732,1,,
9021021481264000,Överbybacken,60.698587,16.616403,1,,
9021021481265000,Överbyn,60.662795,16.801360,1,,
9021021481267000,Övermyra,60.600821,16.564120,1,,
9021021481269000,Gysinge brukshandel,60.289729,16.885505,1,,
9021021481270000,Berga,60.506255,16.815413,1,,
9021021481271000,Doktorsvägen,60.290786,16.891199,1,,
9021021481272000,Kremlan,60.601235,16.755234,1,,
9021021481276000,Sandviken resecentrum,60.614817,16.778771,1,,
9021021481277000,Storvik station,60.582487,16.534628,1,,
9021021481290000,Vikingagården,60.527145,16.751116,1,,
9021021481291000,Jons,60.691568,16.638413,1,,
9021021481293000,Mörkviksvägen,60.653249,16.455833,1,,
9021021481294000,Hedåskiosken,60.574170,16.758362,1,,
9021021481302000,Älgstigen,60.623889,16.746327,1,,
9021021481303000,Norra Porten,60.619827,16.789588,1,,
9021021481305000,Malmarsvägen,60.629350,16.844142,1,,
9021021481306000,Lövåsen,60.561995,16.750072,1,,
9021021481307000,Logården,60.583548,16.531003,1,,
9021021481308000,Mossvägen,60.624239,16.791294,1,,
9021021481310000,Ursa,60.542282,16.766845,1,,
9021021481311000,Norrbokurvan,60.531201,16.772564,1,,
9021021481312000,Åhs Fäbodar,60.654454,16.487818,1,,
9021021481313000,Bångstorp,60.528055,16.776878,1,,
9021021481314000,Nystigen,60.521275,16.781118,1,,
9021021481315000,Lillstugan,60.513528,16.784891,1,,
9021021481316000,Per-Ols vägen,60.505618,16.790094,1,,
9021021481317000,Hästbacka,60.504881,16.798717,1,,
9021021481318000,Gillerhedsvägen,60.508083,16.803821,1,,
9021021481320000,Hagängs,60.503776,16.781849,1,,
9021021481321000,Hönjes,60.498693,16.780968,1,,
9021021481322000,Nordanåker,60.496979,16.773547,1,,
9021021481323000,Kvarnen,60.498390,16.764564,1,,
9021021481324000,Vretas,60.499861,16.757219,1,,
9021021481325000,Ballsta bro,60.501154,16.745665,1,,
9021021481326000,Hyttmarksvägen,60.502823,16.739416,1,,
9021021481330000,Göransson Arena,60.607385,16.768870,1,,
9021021481331000,Mattön,60.283115,16.883081,1,,
9021021481333000,Kärringsten,60.508553,16.735048,1,,
9021021481334000,Mosaiken,60.623466,16.772985,1,,
9021021481335000,Hedängskolan,60.589276,16.528997,1,,
9021021481337000,Björksätra,60.604429,16.750380,1,,
9021021481338000,Bäckgatan,60.601528,16.737773,1,,
9021021481342000,Tuna E16,60.628211,16.749467,1,,
9021021481344000,Björkhagsvägen,60.590259,16.720331,1,,
9021021481345000,Båtstavägen,60.591225,16.712949,1,,
9021021481346000,Ristbackvägen,60.594041,16.718467,1,,
9021021481347000,Stensätra,60.598629,16.728745,1,,
9021021481348000,Lisselängsgatan,60.592579,16.732697,1,,
9021021481349000,Tuna,60.629546,16.749835,1,,
9021021481350000,Sandviken centrum,60.618735,16.776770,1,,
9021021481357000,Gunnarudden,60.599195,16.773099,1,,
9021021481373000,Koppartjärnen,60.552665,16.592739,1,,
9021021481580000,Stocksbo Storån,60.689278,16.318239,1,,
9021021481842000,Karlavägen,60.613147,16.756296,1,,
9021021482001000,Anneberg,61.286436,16.963914,1,,
9021021482002000,Askers,61.211212,17.091051,1,,
9021021482003000,Askesta,61.247828,16.996846,1,,
9021021482004000,Asta,61.272916,16.993452,1,,
9021021482006000,Fejan,61.207722,17.098463,1,,
9021021482007000,Bergviksbron,61.257944,16.834342,1,,
9021021482008000,Bergviksskolan,61.264691,16.833389,1,,
9021021482009000,Bers,61.282920,16.969958,1,,
9021021482010000,Björneborg,61.252749,16.826981,1,,
9021021482011000,Bodarne,61.285804,16.760221,1,,
9021021482012000,Brännvinsbäcken,61.258457,17.019872,1,,
9021021482013000,Byn,61.279029,16.858396,1,,
9021021482014000,Ebomsbro,61.335469,16.743461,1,,
9021021482015000,Ellervik,61.267772,16.841244,1,,
9021021482017000,Emböle,61.326257,16.764513,1,,
9021021482018000,Engelska kanalen,61.309320,16.786319,1,,
9021021482019000,Flor,61.308630,16.762183,1,,
9021021482020000,Florsjö,61.303176,16.798108,1,,
9021021482021000,Florsjöbaden,61.305594,16.792716,1,,
9021021482022000,Flygfältet,61.287217,16.841660,1,,
9021021482023000,Kompanivägen,61.290894,16.827847,1,,
9021021482025000,Hagstigen,61.264584,16.793387,1,,
9021021482026000,Hammarvägen,61.278436,16.973727,1,,
9021021482027000,Hedbacka,61.282049,16.954167,1,,
9021021482028000,Heden,61.283854,16.948731,1,,
9021021482029000,Högbacka,61.254606,16.829426,1,,
9021021482030000,Höljebro,61.241727,17.031911,1,,
9021021482031000,Höljebro kvarn,61.244074,17.025446,1,,
9021021482032000,Janas,61.277138,16.860403,1,,
9021021482033000,Kanalvägen,61.211742,17.090961,1,,
9021021482034000,Kapellet,61.288511,16.761963,1,,
9021021482035000,Karmor norra,61.248740,17.023559,1,,
9021021482036000,Karmor södra,61.247089,17.024557,1,,
9021021482037000,Kilaforsvägen,61.287131,16.835241,1,,
9021021482039000,Kinstabron väg 50,61.286504,16.921540,1,,
9021021482041000,Klovheden,61.239904,16.828464,1,,
9021021482043000,Kraften,61.261361,16.832162,1,,
9021021482044000,Kyrkbyn,61.295065,16.850501,1,,
9021021482045000,Källbacka,61.284716,16.942328,1,,
9021021482046000,Lars-Lars,61.301107,16.817039,1,,
9021021482047000,Linden,61.260802,16.830243,1,,
9021021482048000,Lindängen,61.279899,16.902695,1,,
9021021482049000,Lynäs,61.243407,16.828075,1,,
9021021482050000,Långmyran,61.290733,16.765034,1,,
9021021482051000,Marma station,61.272558,16.864295,1,,
9021021482052000,Marmaberget,61.272942,16.878235,1,,
9021021482053000,Marmaskogen,61.278383,16.893710,1,,
9021021482054000,Marmaverken,61.271578,16.867953,1,,
9021021482055000,Marmavägen,61.281825,16.844988,1,,
9021021482056000,Mickelbergsvägen,61.249564,16.828051,1,,
9021021482057000,Mickelberget,61.247224,16.828888,1,,
9021021482058000,Mo,61.312827,16.787773,1,,
9021021482059000,Mo skola,61.312344,16.781374,1,,
9021021482060000,Mohed bstn,61.295242,16.833230,1,,
9021021482061000,Moheds trä,61.299479,16.825943,1,,
9021021482062000,Mokorset,61.286521,16.839958,1,,
9021021482063000,Mosebacke,61.296415,16.827616,1,,
9021021482064000,Mosne,61.255722,17.023642,1,,
9021021482065000,Myskje,61.280700,16.845436,1,,
9021021482066000,Möller,61.285676,16.925017,1,,
9021021482067000,Norra Ellne,61.265826,17.002672,1,,
9021021482068000,Kinstagropen,61.284595,16.914609,1,,
9021021482069000,Kinstabron Marmavägen,61.285822,16.920415,1,,
9021021482070000,Nolhed,61.330244,16.756566,1,,
9021021482071000,Nordäng,61.271187,16.776294,1,,
9021021482072000,Norrljusne,61.222729,17.061141,1,,
9021021482073000,Nybacka,61.275492,16.882554,1,,
9021021482074000,Näcktjärn,61.301403,16.808558,1,,
9021021482075000,Näcktjärn norra,61.303331,16.807630,1,,
9021021482076000,Näset,61.299048,16.761836,1,,
9021021482077000,Ol-Ors,61.299201,16.816324,1,,
9021021482078000,Onsäng,61.249309,17.018122,1,,
9021021482079000,Per-Mats,61.332633,16.751147,1,,
9021021482080000,Ranbo,61.316149,16.782537,1,,
9021021482081000,Renskalla,61.236246,17.042499,1,,
9021021482082000,Reveljvägen,61.288148,16.830126,1,,
9021021482083000,Söderala Rosenvall,61.279393,16.963636,1,,
9021021482084000,Siggesta,61.277612,16.986040,1,,
9021021482086000,Smedjan,61.291784,16.870781,1,,
9021021482087000,Tyby,61.290385,16.888809,1,,
9021021482088000,Sunnanhed,61.285381,16.930378,1,,
9021021482089000,Sågvallen,61.289036,16.945170,1,,
9021021482091000,Tallbacken,61.287509,16.901655,1,,
9021021482093000,Tomteboda,61.284762,16.847081,1,,
9021021482094000,Trädgården,61.259703,17.016025,1,,
9021021482095000,Valla,61.286527,16.978429,1,,
9021021482096000,Vannsätter,61.259403,16.791268,1,,
9021021482097000,Variant,61.271867,16.843354,1,,
9021021482098000,Verkmyra,61.231612,16.833166,1,,
9021021482099000,Vreten,61.287082,16.855719,1,,
9021021482100000,Åkerslund,61.339181,16.733372,1,,
9021021482101000,Åänge,61.207960,17.107347,1,,
9021021482102000,Änkehemmet,61.250654,17.021322,1,,
9021021482103000,Östbo,61.308177,16.795336,1,,
9021021482104000,Österbacken,61.262848,16.801235,1,,
9021021482106000,Överbo,61.343262,16.724449,1,,
9021021482107000,Albertina,61.377279,17.101264,1,,
9021021482108000,Ale,61.369668,16.954459,1,,
9021021482110000,Altorp,61.359745,16.977297,1,,
9021021482111000,Arklo,61.359957,16.993159,1,,
9021021482112000,Berga,61.370388,16.898586,1,,
9021021482113000,Berge,61.408647,16.814858,1,,
9021021482114000,Boda,61.363243,16.921952,1,,
9021021482115000,Borg,61.338715,17.036428,1,,
9021021482116000,Brötgrind,61.350331,17.026175,1,,
9021021482117000,Daglösa,61.383718,16.879163,1,,
9021021482118000,Edvik,61.357105,17.049208,1,,
9021021482119000,Fly,61.373110,16.896100,1,,
9021021482120000,Forsgården,61.365900,16.944635,1,,
9021021482121000,Glamsta,61.393560,16.843680,1,,
9021021482122000,Trönö skola,61.395626,16.835195,1,,
9021021482123000,Grubbe,61.445214,16.725364,1,,
9021021482124000,Hagaborg,61.332904,17.045764,1,,
9021021482125000,Hamre,61.355499,16.999009,1,,
9021021482126000,Hägnan,61.398537,16.829956,1,,
9021021482127000,Hällsätter,61.390370,16.854708,1,,
9021021482128000,Ingsta,61.358584,16.984900,1,,
9021021482130000,Kolsta,61.356801,17.021267,1,,
9021021482131000,Kungsgården,61.364441,16.947424,1,,
9021021482132000,Källene västra,61.353882,17.006368,1,,
9021021482133000,Källene östra,61.353080,17.010749,1,,
9021021482134000,Sven-Petters,61.389268,16.858021,1,,
9021021482135000,Långbro,61.380974,16.889041,1,,
9021021482136000,Långåker,61.362346,16.959651,1,,
9021021482138000,Norråkern,61.394891,16.838614,1,,
9021021482139000,Nya borg,61.344757,17.031265,1,,
9021021482140000,Nygården,61.366296,16.933785,1,,
9021021482141000,Närby,61.368066,16.964499,1,,
9021021482142000,Orsten,61.388206,16.860736,1,,
9021021482143000,Rappsta,61.405220,16.823210,1,,
9021021482144000,Remsta,61.364498,16.975605,1,,
9021021482145000,Ringa,61.360832,16.969859,1,,
9021021482146000,Rönningen,61.431246,16.752179,1,,
9021021482147000,Siknäs,61.358876,16.999755,1,,
9021021482148000,Skensta,61.355954,17.034600,1,,
9021021482149000,Skenstaviken,61.346543,17.030288,1,,
9021021482150000,Skettene,61.358188,17.007561,1,,
9021021482151000,Skärså,61.379602,17.108955,1,,
9021021482152000,Snarböle,61.362383,16.983547,1,,
9021021482153000,Sterte,61.423811,16.779492,1,,
9021021482154000,Stertebacken,61.413341,16.803867,1,,
9021021482156000,Norrala-Sund,61.334871,17.071902,1,,
9021021482158000,Svartvik,61.360237,17.058026,1,,
9021021482159000,Åvägen,61.367043,16.949707,1,,
9021021482160000,Sågvägen,61.425720,16.762147,1,,
9021021482161000,Svarven,61.364254,16.915855,1,,
9021021482162000,Östra Trönbyn,61.386031,16.869139,1,,
9021021482163000,Västra Trönbyn,61.387311,16.864953,1,,
9021021482164000,Tygsta,61.410906,16.809163,1,,
9021021482165000,Varberg,61.343736,17.067327,1,,
9021021482166000,Östra Långbro,61.378823,16.895439,1,,
9021021482167000,Djupvik,61.281966,17.169865,1,,
9021021482168000,Forsbacka,61.314998,17.091264,1,,
9021021482169000,Forsbacka västra,61.319879,17.083808,1,,
9021021482170000,Fridsbacka,61.311664,17.104941,1,,
9021021482171000,Klapparvik norra,61.299464,17.141272,1,,
9021021482172000,Klapparvik södra,61.296869,17.143270,1,,
9021021482173000,Källvik,61.283553,17.162809,1,,
9021021482174000,Lötån,61.325954,17.067602,1,,
9021021482175000,Malenedal,61.291514,17.148340,1,,
9021021482176000,Mamre,61.301936,17.134509,1,,
9021021482177000,Mariehill,61.310070,17.116691,1,,
9021021482178000,Nyhem,61.323778,17.075768,1,,
9021021482179000,Sandviksudden,61.305664,17.128620,1,,
9021021482180000,Simpviken,61.280250,17.181558,1,,
9021021482181000,Skagan,61.313849,17.098852,1,,
9021021482182000,Skolvägen,61.317318,17.086000,1,,
9021021482183000,Sofieholm,61.289014,17.153401,1,,
9021021482184000,Stenåker,61.308269,17.125631,1,,
9021021482185000,Säter,61.287318,17.155156,1,,
9021021482186000,Utvik,61.280047,17.195331,1,,
9021021482187000,Abraham Bäckgatan,61.297255,17.062456,1,,
9021021482188000,Balder,61.303857,17.105682,1,,
9021021482190000,Björnänge,61.303612,17.038636,1,,
9021021482191000,Bohusvägen,61.294751,17.073961,1,,
9021021482194000,Bromsäng,61.298278,17.114706,1,,
9021021482195000,E-Center,61.295235,17.019016,1,,
9021021482196000,E-Center/Väg 50,61.297003,17.020092,1,,
9021021482197000,Enriset,61.313557,17.049313,1,,
9021021482199000,Ängsvägen,61.307013,17.046515,1,,
9021021482200000,Faxeholmen,61.305328,17.070655,1,,
9021021482201000,Flygbacken,61.291296,17.072982,1,,
9021021482202000,Fålnäs,61.306831,17.089306,1,,
9021021482203000,Kuriren,61.301293,17.039030,1,,
9021021482205000,Gamla idrottsplatsen,61.305676,17.048460,1,,
9021021482206000,Grundvik,61.295643,17.118962,1,,
9021021482209000,Hobacka,61.289652,17.014025,1,,
9021021482210000,Hägnavägen,61.321786,17.062150,1,,
9021021482211000,Hällmyran,61.284366,17.084584,1,,
9021021482212000,Hällåsen,61.291273,17.068672,1,,
9021021482213000,Härjedalsvägen,61.297632,17.073070,1,,
9021021482215000,Ina,61.289403,17.000659,1,,
9021021482216000,Klossdammen,61.297116,17.066705,1,,
9021021482219000,Källgatan,61.301899,17.052285,1,,
9021021482220000,Källparken,61.300257,17.053153,1,,
9021021482222000,Lillberget,61.311166,17.049760,1,,
9021021482223000,Lotsgatan,61.305395,17.109105,1,,
9021021482224000,Lönnen,61.303078,17.053825,1,,
9021021482225000,Mossberget,61.315843,17.050598,1,,
9021021482226000,Marinvägen,61.300103,17.114390,1,,
9021021482227000,Nejlikan,61.306459,17.059932,1,,
9021021482228000,Norrberget,61.314469,17.043860,1,,
9021021482230000,Norrmyran,61.309935,17.044970,1,,
9021021482231000,Oden,61.306757,17.102778,1,,
9021021482232000,Stamvägen,61.311416,17.059644,1,,
9021021482233000,Oxen,61.301805,17.048810,1,,
9021021482234000,Söderhamn resecentrum,61.298940,17.033247,1,,
9021021482235000,Blötängsvägen,61.294974,17.033073,1,,
9021021482237000,Aquarena,61.288919,17.070872,1,,
9021021482238000,Söderhamn Sjukhusentrén,61.296897,17.057460,1,,
9021021482239000,Söderhamn Sjukhuset (Trädgårdsg.),61.297955,17.058566,1,,
9021021482241000,Skeppsgatan,61.302744,17.107614,1,,
9021021482243000,Stormyran,61.292546,17.073704,1,,
9021021482244000,Eriksgatan,61.304057,17.111961,1,,
9021021482245000,Milstensvägen,61.289360,17.002467,1,,
9021021482247000,Tälje,61.291869,17.046906,1,,
9021021482248000,Mjölnäsvägen,61.318210,17.062586,1,,
9021021482249000,Vågbroskolan,61.326031,17.061162,1,,
9021021482250000,Lötvägen,61.324350,17.061487,1,,
9021021482251000,Värmlandsvägen,61.294858,17.064450,1,,
9021021482252000,Västra vägen,61.327809,17.056246,1,,
9021021482253000,Växelgatan,61.305997,17.046737,1,,
9021021482255000,Åsbäcksgatan,61.307726,17.060748,1,,
9021021482257000,Alagården,61.217727,17.146686,1,,
9021021482258000,Lumavägen,61.214422,17.141484,1,,
9021021482259000,Alméns,61.263997,17.152777,1,,
9021021482261000,Bolagsvägen,61.259478,17.139668,1,,
9021021482263000,Bruksgården,61.259815,17.160854,1,,
9021021482265000,Flisvägen,61.253530,17.174521,1,,
9021021482266000,Flygstaden,61.278373,17.093832,1,,
9021021482267000,Gammelsågen södra,61.243527,17.149796,1,,
9021021482268000,Hönsberget,61.254988,17.149876,1,,
9021021482269000,Körsbärsvägen,61.261495,17.136250,1,,
9021021482270000,Sandarne skola,61.265460,17.156437,1,,
9021021482271000,Lerviksberget,61.267174,17.155560,1,,
9021021482272000,Lillvägen,61.268469,17.153434,1,,
9021021482273000,Ljusne Söder,61.204440,17.115890,1,,
9021021482274000,Ljusnebron,61.209191,17.112738,1,,
9021021482275000,Lönnvägen,61.184616,17.173726,1,,
9021021482276000,Lötbäcken,61.251864,17.181286,1,,
9021021482277000,Lövskär,61.226916,17.160407,1,,
9021021482278000,Nyhed,61.264088,17.125232,1,,
9021021482279000,Ljungvägen,61.262467,17.131333,1,,
9021021482280000,Nyplan,61.260329,17.152508,1,,
9021021482281000,Nyplanshallen,61.260288,17.148518,1,,
9021021482282000,Bruksmuseet,61.213556,17.134636,1,,
9021021482284000,Sandarne,61.260210,17.145477,1,,
9021021482285000,Sandbacken,61.253985,17.137833,1,,
9021021482286000,Latexia,61.184524,17.153382,1,,
9021021482288000,Sjövik,61.284264,17.140943,1,,
9021021482289000,Skinn-Kalle,61.280526,17.145913,1,,
9021021482291000,Stenö,61.248173,17.196495,1,,
9021021482292000,Särvvägen,61.257615,17.164579,1,,
9021021482293000,Storsjöbaden,61.243209,17.158314,1,,
9021021482294000,Trångsta,61.272876,17.152504,1,,
9021021482295000,Tönshammar,61.255618,17.168555,1,,
9021021482297000,Vad,61.286116,17.136042,1,,
9021021482298000,Vadtorp,61.288864,17.132166,1,,
9021021482299000,Vallvik,61.184545,17.179933,1,,
9021021482300000,Växthusvägen,61.262074,17.152117,1,,
9021021482302000,Åsbacka,61.276659,17.150279,1,,
9021021482303000,Östanbo skola,61.257102,17.135691,1,,
9021021482310000,Böle,61.182221,16.845223,1,,
9021021482311000,Bölesbacken,61.176844,16.840790,1,,
9021021482317000,Holmsveden station,61.118356,16.720942,1,,
9021021482321000,Kallbäck,61.161017,16.814003,1,,
9021021482326000,Lövtjära,61.189450,16.856320,1,,
9021021482328000,Norrbovägen,61.186194,16.851508,1,,
9021021482329000,Sagänge,61.111557,16.734879,1,,
9021021482330000,Skogs kyrka,61.165030,16.822120,1,,
9021021482331000,Skolbacken,61.114928,16.726315,1,,
9021021482333000,Stråtjära Villavägen,61.166332,16.841077,1,,
9021021482334000,Stråtjära N,61.171403,16.841076,1,,
9021021482335000,Stråtjära skola,61.167104,16.832797,1,,
9021021482336000,Stråtjära trekanten,61.168647,16.842286,1,,
9021021482337000,Tönnånger,61.124335,16.786040,1,,
9021021482338000,Åkerbergsvägen,61.116114,16.724754,1,,
9021021482339000,Älgnäs,61.119431,16.777948,1,,
9021021482340000,Ljusne torg,61.211271,17.128716,1,,
9021021482341000,Ljusneborg,61.211521,17.125209,1,,
9021021482342000,Svarvarvägen,61.213938,17.121216,1,,
9021021482343000,Myrbacka,61.213424,17.116840,1,,
9021021482344000,Fritidsbanken,61.305013,17.063009,1,,
9021021482345000,Kanslivägen,61.273312,17.091835,1,,
9021021482346000,Kanslihuset,61.270533,17.091516,1,,
9021021482347000,Verkstadsvägen,61.270758,17.098964,1,,
9021021482348000,Vaktstugan,61.274395,17.094079,1,,
9021021482350000,Ljusne station,61.212599,17.112061,1,,
9021021482353000,Skytten,61.310838,17.040413,1,,
9021021482354000,Köpmangatan,61.304961,17.064780,1,,
9021021482355000,Ridhuset,61.293028,17.028949,1,,
9021021482356000,Stråtjära Preem,61.165734,16.845331,1,,
9021021482357000,Norrala kyrka,61.360238,16.986645,1,,
9021021482358000,Landsvägstorpet,61.134602,16.794748,1,,
9021021482359000,Stenbergaskolan,61.214199,17.130327,1,,
9021021482360000,Norrtullskolan,61.305125,17.055661,1,,
9021021482361000,Nylandsgatan,61.307906,17.050956,1,,
9021021482362000,Hemmansvägen,61.323792,17.060736,1,,
9021021482363000,Kapellvägen,61.326510,17.059892,1,,
9021021482364000,Näset södra,61.296786,16.761879,1,,
9021021482365000,Hangarvägen,61.270617,17.094987,1,,
9021021482366000,Kasernvägen,61.272362,17.099235,1,,
9021021482367000,Södra Ellne,61.263068,17.007972,1,,
9021021482368000,Getbacken,61.319210,16.777554,1,,
9021021482369000,Post-Kalles,61.428719,16.758042,1,,
9021021482370000,Nymåla förskola,61.301301,17.104624,1,,
9021021482373000,Pumsen,61.219466,17.072253,1,,
9021021482374000,Edviksängarna,61.356475,17.044491,1,,
9021021482375000,Nyåker,61.338963,17.068125,1,,
9021021482376000,Färghuset,61.301393,17.036907,1,,
9021021482378000,Gammelsågen,61.246371,17.152637,1,,
9021021482380000,Bergviks kyrka,61.261747,16.822614,1,,
9021021482381000,Sikfjärdsvägen,61.369807,17.078064,1,,
9021021482382000,Ängesberg,61.417601,16.791960,1,,
9021021482383000,Björkbacken,61.282986,16.763921,1,,
9021021482384000,Faxepark,61.303801,17.064939,1,,
9021021482386000,Järnbron,61.302041,17.058244,1,,
9021021482387000,Norrtull,61.304182,17.052898,1,,
9021021482388000,Källmyran,61.151232,16.814267,1,,
9021021482389000,Höljebro Västra,61.243330,17.028285,1,,
9021021482390000,Rosenvalls skola,61.282050,16.959445,1,,
9021021482391000,Nymåla,61.301151,17.096818,1,,
9021021482392000,Gräsuddsvägen,61.301127,17.101221,1,,
9021021482393000,Lillviken,61.354463,17.058319,1,,
9021021482394000,Skärsåvägen,61.357408,17.055352,1,,
9021021482395000,Söribacken,61.269885,16.996302,1,,
9021021482396000,Härnebokvarn,61.115262,16.766078,1,,
9021021482397000,Forsbackabron,61.316277,17.086947,1,,
9021021482398000,Granskär,61.309901,17.073023,1,,
9021021482399000,Verkstäderna,61.307301,17.065957,1,,
9021021482402000,Köpmantorget,61.303999,17.060095,1,,
9021021482918000,Närområde hpl Ica Alen,61.302908,17.058689,1,,
9021021483001000,Bergsänge,61.561430,16.338567,1,,
9021021483002000,Bogården,61.570877,16.455343,1,,
9021021483003000,Djupa,61.598218,16.301448,1,,
9021021483004000,Ersk-Jons,61.530359,16.368580,1,,
9021021483005000,Ersk-Ols,61.528236,16.367677,1,,
9021021483006000,Hagmora,61.566978,16.433282,1,,
9021021483007000,Hans-Ers,61.630389,16.291176,1,,
9021021483008000,Hov,61.513646,16.360876,1,,
9021021483009000,Hänsätter,61.527770,16.388981,1,,
9021021483010000,Kalles,61.572044,16.322732,1,,
9021021483011000,Källyckan,61.611494,16.319921,1,,
9021021483012000,Lövvik,61.623858,16.313188,1,,
9021021483013000,Nils-Pers,61.625676,16.299417,1,,
9021021483014000,Nordsjö,61.570726,16.502505,1,,
9021021483015000,Norra Orbaden,61.540709,16.359065,1,,
9021021483016000,Offerberg,61.624267,16.304353,1,,
9021021483017000,Offerberget,61.620038,16.290015,1,,
9021021483018000,Åmyrbäcken,61.508181,16.358487,1,,
9021021483019000,Orbaden,61.540690,16.363614,1,,
9021021483020000,Orfa,61.544120,16.354424,1,,
9021021483021000,Q-star,61.573936,16.318302,1,,
9021021483022000,Rora,61.604554,16.313400,1,,
9021021483023000,Sidskogsvägen,61.579070,16.310782,1,,
9021021483024000,Simeå,61.576123,16.311637,1,,
9021021483025000,Simeå norra,61.581203,16.316445,1,,
9021021483026000,Skogs,61.621315,16.323440,1,,
9021021483027000,Stiftsgården,61.607749,16.320575,1,,
9021021483028000,Tällby,61.623056,16.318661,1,,
9021021483029000,Undersvik,61.600946,16.306465,1,,
9021021483030000,Undersvik södra,61.593574,16.300338,1,,
9021021483031000,Undersviks kyrka,61.605902,16.317850,1,,
9021021483032000,Undersvik gamla skola,61.614580,16.320180,1,,
9021021483033000,Vallsta Skolvägen,61.518222,16.363212,1,,
9021021483034000,Vallsta by,61.530405,16.363994,1,,
9021021483035000,Vallsta skola,61.518262,16.364303,1,,
9021021483037000,Vilan,61.539815,16.366908,1,,
9021021483038000,Vinterstaden,61.547108,16.352239,1,,
9021021483039000,Orbaden väg 83,61.540848,16.357864,1,,
9021021483040000,Änga,61.538361,16.394745,1,,
9021021483041000,Östansjö,61.574909,16.544933,1,,
9021021483042000,Övre roren,61.608299,16.295485,1,,
9021021483043000,Arbrå station,61.470754,16.379530,1,,
9021021483044000,Arbrå kyrka,61.490753,16.374116,1,,
9021021483045000,Arbrå skola,61.479641,16.376654,1,,
9021021483046000,Hovsätter,61.503090,16.357026,1,,
9021021483047000,Bruks,61.475907,16.370562,1,,
9021021483048000,Centralgatan,61.472415,16.377178,1,,
9021021483049000,Flästa,61.460163,16.421214,1,,
9021021483050000,Forneby,61.466271,16.419890,1,,
9021021483051000,Forsbro,61.475185,16.394847,1,,
9021021483053000,Haga,61.497811,16.364237,1,,
9021021483054000,Hanks,61.448916,16.445214,1,,
9021021483055000,Östra Norrängevägen,61.473952,16.405819,1,,
9021021483056000,Arbrå hälsocentral,61.469958,16.374601,1,,
9021021483057000,Koldemo,61.461530,16.379267,1,,
9021021483058000,Korvgatan,61.398253,16.390330,1,,
9021021483059000,Kurland,61.500153,16.359810,1,,
9021021483060000,Kyrkbyn,61.482590,16.369013,1,,
9021021483061000,Lappstan,61.480353,16.369573,1,,
9021021483062000,Lottefors,61.420897,16.408304,1,,
9021021483063000,Målarbacken,61.474978,16.390809,1,,
9021021483064000,Netsmans,61.484027,16.366430,1,,
9021021483065000,Norränge,61.479235,16.402355,1,,
9021021483066000,Nysvea,61.471865,16.407111,1,,
9021021483067000,Nytorp,61.488853,16.373387,1,,
9021021483068000,Ol-Lars,61.448546,16.473646,1,,
9021021483069000,Rödsand,61.447028,16.481243,1,,
9021021483070000,Röste,61.393302,16.385484,1,,
9021021483071000,Semyres,61.403392,16.397259,1,,
9021021483072000,Simas,61.448786,16.457509,1,,
9021021483073000,Skeppstavägen,61.477605,16.399697,1,,
9021021483074000,Storsvedvägen,61.413527,16.410671,1,,
9021021483075000,Parkgatan,61.466631,16.380561,1,,
9021021483076000,Tallbacken,61.427339,16.408521,1,,
9021021483077000,Tjärnberg,61.449916,16.383910,1,,
9021021483078000,Träslottet,61.453505,16.379945,1,,
9021021483079000,Växsjö,61.406693,16.401777,1,,
9021021483081000,Ängeslundsvägen,61.474883,16.379287,1,,
9021021483082000,Ängslunda,61.472866,16.370094,1,,
9021021483083000,Flästa Öjungsvägen,61.446178,16.486098,1,,
9021021483084000,Östergårds,61.455235,16.429386,1,,
9021021483085000,Backåkers,61.317597,16.235465,1,,
9021021483086000,Bergströms,61.328550,16.261574,1,,
9021021483087000,Bodåker,61.329674,16.250160,1,,
9021021483088000,Freluga gård,61.325425,16.290733,1,,
9021021483089000,Edstuga,61.331191,16.316354,1,,
9021021483090000,Edstuga östra,61.332369,16.322854,1,,
9021021483091000,Fjälevägen,61.319952,16.211059,1,,
9021021483092000,Freluga,61.326923,16.298432,1,,
9021021483093000,Grönstavägen,61.318276,16.221996,1,,
9021021483094000,Karl-Måns,61.333274,16.334953,1,,
9021021483095000,Kilen,61.334124,16.191741,1,,
9021021483096000,Kilvägen,61.325285,16.200932,1,,
9021021483097000,Kolsmyra,61.325282,16.285577,1,,
9021021483098000,Lass-Nils,61.332760,16.230910,1,,
9021021483099000,Mödänge,61.319108,16.267318,1,,
9021021483100000,Norrbobacken,61.331107,16.239983,1,,
9021021483101000,Rasslas,61.332844,16.209226,1,,
9021021483103000,Smensbacken,61.328693,16.305183,1,,
9021021483104000,Svedbergs,61.334921,16.189080,1,,
9021021483105000,Sven-Lars,61.318174,16.246003,1,,
9021021483106000,Sörbo,61.316675,16.228956,1,,
9021021483107000,Sörbovägen,61.325070,16.279449,1,,
9021021483108000,Sörängs kvarn,61.334512,16.209397,1,,
9021021483109000,Sörängs skola,61.334493,16.218848,1,,
9021021483110000,Edstuga väg 50,61.339882,16.305622,1,,
9021021483111000,Tranbo,61.336001,16.289384,1,,
9021021483112000,Västbacka,61.331921,16.278376,1,,
9021021483113000,Strandvägen,61.322344,16.203285,1,,
9021021483115000,Backsveden,61.361637,16.425299,1,,
9021021483116000,Bergsveden,61.357105,16.433172,1,,
9021021483117000,Björktjära förskolan,61.365890,16.384510,1,,
9021021483118000,Björktjära skola,61.363541,16.386205,1,,
9021021483119000,Blomkransen,61.345860,16.371864,1,,
9021021483120000,Björktjäravägen,61.361835,16.394867,1,,
9021021483122000,Bonden,61.355463,16.386486,1,,
9021021483123000,Bornvägen,61.368238,16.387489,1,,
9021021483126000,Brotorget,61.347874,16.396137,1,,
9021021483128000,Bull-Olles,61.356200,16.419005,1,,
9021021483130000,Combigrillen,61.357243,16.422539,1,,
9021021483133000,Granbergsbacken,61.333395,16.390915,1,,
9021021483135000,Granberg,61.331259,16.386841,1,,
9021021483137000,Hallonvägen,61.363278,16.380610,1,,
9021021483139000,Heden,61.355028,16.357226,1,,
9021021483140000,Hedhamre,61.352648,16.383780,1,,
9021021483141000,Hedåsvägen,61.344267,16.346331,1,,
9021021483142000,Aseavägen,61.343410,16.384731,1,,
9021021483143000,Häggesta,61.336031,16.399781,1,,
9021021483146000,Hällbovägen,61.309785,16.378045,1,,
9021021483147000,Höghammar,61.356437,16.426056,1,,
9021021483148000,Höglunda,61.357601,16.394302,1,,
9021021483149000,Karlslund,61.357513,16.400151,1,,
9021021483150000,Kilberg,61.356619,16.411573,1,,
9021021483152000,Korsnäsvägen,61.385241,16.388011,1,,
9021021483154000,Lagmansvägen,61.360973,16.405170,1,,
9021021483155000,Nyhedsbacken,61.350578,16.374547,1,,
9021021483157000,Mejeriet,61.338175,16.389659,1,,
9021021483160000,Norrlandsvägen,61.365838,16.394568,1,,
9021021483161000,Prästnäset,61.318753,16.389933,1,,
9021021483162000,Rehnstedtska gården,61.352480,16.443546,1,,
9021021483163000,Renbron,61.356217,16.401042,1,,
9021021483164000,Rengården,61.356433,16.407102,1,,
9021021483165000,Rens centrum,61.360595,16.421427,1,,
9021021483166000,Renshammarvägen,61.355721,16.431668,1,,
9021021483168000,Roosesvägen,61.370047,16.402932,1,,
9021021483170000,Sandvägen,61.365981,16.403060,1,,
9021021483171000,Schenströmsplan,61.346204,16.386053,1,,
9021021483173000,Bollnäs sjukhuset,61.353919,16.362945,1,,
9021021483174000,Sjölunds,61.352966,16.433557,1,,
9021021483175000,Bäverstigen,61.361156,16.383656,1,,
9021021483176000,Gärdet,61.353589,16.388171,1,,
9021021483177000,Stagårdsvägen,61.326631,16.384067,1,,
9021021483178000,Stallbacken,61.344124,16.335006,1,,
9021021483180000,Sunnerstaholm,61.324145,16.386206,1,,
9021021483181000,Sysslomansgatan,61.348732,16.378195,1,,
9021021483182000,Solrosen,61.350616,16.380528,1,,
9021021483183000,Bollnäs Sävsberg,61.343942,16.371101,1,,
9021021483184000,Torsbergsgymnasiet,61.348452,16.384973,1,,
9021021483185000,Åke Wassings väg,61.341397,16.343666,1,,
9021021483187000,Tegelbruksvägen,61.376276,16.388218,1,,
9021021483188000,Tjädervägen,61.361200,16.432432,1,,
9021021483190000,Toven,61.340713,16.445717,1,,
9021021483191000,Tågmästaren,61.344432,16.380676,1,,
9021021483192000,Vevlinge,61.354499,16.431887,1,,
9021021483193000,Vevlingestrand,61.347070,16.435382,1,,
9021021483194000,Vik,61.326132,16.415971,1,,
9021021483196000,Voltersberg,61.355149,16.398891,1,,
9021021483197000,Våtlåg,61.314979,16.387100,1,,
9021021483198000,Åsen,61.343856,16.363868,1,,
9021021483199000,Öberget,61.372794,16.398495,1,,
9021021483200000,Örnvägen,61.361700,16.429133,1,,
9021021483201000,Örsängen,61.359624,16.433746,1,,
9021021483202000,Thyrsvägen,61.274660,16.628144,1,,
9021021483203000,Bofara,61.210838,16.533041,1,,
9021021483204000,Bäcken,61.213788,16.609940,1,,
9021021483205000,Bäckänge,61.292033,16.535683,1,,
9021021483206000,Böle,61.290474,16.504515,1,,
9021021483207000,Djupa torg,61.286356,16.569178,1,,
9021021483208000,Erik-Ers,61.253225,16.416366,1,,
9021021483209000,Erik-Mårs,61.336802,16.449168,1,,
9021021483210000,Fällene,61.308499,16.456521,1,,
9021021483211000,Fäsjön,61.251128,16.598076,1,,
9021021483212000,Gammel-Leeks,61.276533,16.603004,1,,
9021021483213000,Garntjänst,61.228480,16.559678,1,,
9021021483214000,Granbo,61.275067,16.526470,1,,
9021021483216000,Görtsbo,61.297483,16.398587,1,,
9021021483217000,Hallen,61.214866,16.541786,1,,
9021021483218000,Hanebo kyrkväg,61.251033,16.553176,1,,
9021021483219000,Haneborg,61.228537,16.570421,1,,
9021021483220000,Harsnäs,61.332062,16.462668,1,,
9021021483221000,Landafors kraftverk,61.273166,16.618355,1,,
9021021483222000,Herte,61.265020,16.405468,1,,
9021021483223000,Hisnäs,61.322345,16.471577,1,,
9021021483224000,Hullsta,61.255904,16.629424,1,,
9021021483225000,Hå,61.237685,16.417592,1,,
9021021483226000,Hå skola,61.242756,16.417373,1,,
9021021483227000,Hårga,61.266979,16.545148,1,,
9021021483228000,Hällagården,61.233359,16.558622,1,,
9021021483229000,Hällbo,61.219466,16.421854,1,,
9021021483230000,Innantjära,61.251002,16.581101,1,,
9021021483231000,Jakobs,61.325820,16.469242,1,,
9021021483233000,Johanneses,61.314056,16.488892,1,,
9021021483234000,Kilafors station,61.230524,16.569762,1,,
9021021483235000,Sör,61.222499,16.576342,1,,
9021021483236000,Klockarbacken,61.230626,16.418628,1,,
9021021483237000,Knisselbo,61.208862,16.448121,1,,
9021021483238000,Kolmätars,61.217508,16.503624,1,,
9021021483239000,Kronåkers,61.209938,16.487009,1,,
9021021483240000,Kyrkbybacken,61.244625,16.549876,1,,
9021021483241000,Källvik,61.291102,16.408819,1,,
9021021483243000,Landa,61.274987,16.610888,1,,
9021021483244000,Lanses,61.334721,16.456485,1,,
9021021483245000,Lenninge,61.318303,16.436542,1,,
9021021483246000,Lilltjära,61.213266,16.620626,1,,
9021021483247000,Lillåkers,61.281720,16.587508,1,,
9021021483248000,Lotan,61.216269,16.493305,1,,
9021021483249000,Lund,61.278487,16.597254,1,,
9021021483250000,Biografteatern,61.230222,16.565882,1,,
9021021483251000,Löten,61.208649,16.529697,1,,
9021021483252000,Murar-Holgers,61.206178,16.463246,1,,
9021021483254000,Nolagatan,61.211284,16.516715,1,,
9021021483255000,Norra Görtsbo,61.304097,16.386078,1,,
9021021483256000,Norrbyn,61.251723,16.551609,1,,
9021021483258000,Persbacka,61.212304,16.608916,1,,
9021021483259000,Petterssons,61.217772,16.547028,1,,
9021021483260000,Ricknäs,61.277226,16.397198,1,,
9021021483261000,Rotemo,61.252697,16.562270,1,,
9021021483262000,Segersta affären,61.267476,16.646335,1,,
9021021483263000,Segersta kyrka,61.267741,16.638439,1,,
9021021483264000,Segersta skola,61.270131,16.636396,1,,
9021021483265000,Sibo,61.215787,16.593448,1,,
9021021483268000,Stenbacka,61.226866,16.420639,1,,
9021021483269000,Storms,61.251254,16.613225,1,,
9021021483270000,Sveden,61.291519,16.542703,1,,
9021021483271000,Gubberg,61.285991,16.514076,1,,
9021021483272000,Gamla Sibovägen,61.215155,16.603369,1,,
9021021483273000,Herte såg,61.260485,16.416283,1,,
9021021483274000,Templet,61.214620,16.613404,1,,
9021021483276000,Valsbäcken,61.212765,16.629377,1,,
9021021483277000,Lilltjära Vassbacken,61.213119,16.625628,1,,
9021021483279000,Vestlens,61.212507,16.436324,1,,
9021021483280000,Vinkällan,61.307274,16.502667,1,,
9021021483281000,Voxsätter,61.312358,16.445065,1,,
9021021483282000,Västergårds,61.319649,16.479585,1,,
9021021483283000,Österbacken,61.311621,16.496679,1,,
9021021483284000,Berga,61.349727,16.619683,1,,
9021021483286000,Björtomta,61.350118,16.642606,1,,
9021021483287000,Blykällarbacken,61.367093,16.638908,1,,
9021021483288000,Bodarna,61.347599,16.491192,1,,
9021021483289000,Boives,61.347666,16.712917,1,,
9021021483292000,Ehrins,61.350548,16.511347,1,,
9021021483294000,Fromskroken,61.352354,16.583381,1,,
9021021483297000,Glössbo,61.351068,16.700568,1,,
9021021483299000,Gåsjön,61.350213,16.613528,1,,
9021021483300000,Görtsberg,61.357000,16.588375,1,,
9021021483303000,Hägnabacken,61.403382,16.514091,1,,
9021021483304000,Brolins,61.377882,16.628233,1,,
9021021483306000,Knyssla,61.350599,16.668951,1,,
9021021483307000,Källgården,61.367683,16.648011,1,,
9021021483309000,Lapphagen,61.374641,16.634320,1,,
9021021483310000,Laviken,61.391328,16.484420,1,,
9021021483313000,Mosseln,61.352165,16.572368,1,,
9021021483314000,Nybruket,61.387212,16.609169,1,,
9021021483316000,Rabo,61.346014,16.479721,1,,
9021021483317000,Rengsjö Ringshög,61.364339,16.617931,1,,
9021021483318000,Rengsjö skola,61.362498,16.602964,1,,
9021021483320000,Röstebo,61.384242,16.401163,1,,
9021021483322000,Skomakarbacken,61.366082,16.627942,1,,
9021021483323000,Snällens,61.396448,16.585860,1,,
9021021483324000,Svedja Lintjärn,61.392059,16.592170,1,,
9021021483326000,Slakttjärn,61.388501,16.602072,1,,
9021021483329000,Torpet,61.351873,16.555484,1,,
9021021483330000,Trolldalen,61.405637,16.562051,1,,
9021021483332000,Västra Växbo,61.401204,16.504926,1,,
9021021483333000,Vallanes,61.390318,16.413292,1,,
9021021483335000,Västerböle,61.352263,16.589845,1,,
9021021483336000,Växbo skolan,61.407406,16.543745,1,,
9021021483337000,Yxbo,61.351833,16.546362,1,,
9021021483339000,Änge,61.401726,16.574517,1,,
9021021483340000,Östra Höle,61.380012,16.623276,1,,
9021021483344000,Snatbo,61.543406,16.420772,1,,
9021021483350000,Vallsta station,61.518168,16.367495,1,,
9021021483351000,Bollnäs Norr,61.369185,16.392612,1,,
9021021483352000,Garvars,61.388513,16.403452,1,,
9021021483353000,Ol-Pers,61.406750,16.552173,1,,
9021021483356000,Iste,61.578207,16.402465,1,,
9021021483357000,Häggesta Södra,61.331427,16.410079,1,,
9021021483358000,Kilafors Herrgård,61.226519,16.571712,1,,
9021021483359000,Bulleberget,61.350298,16.652665,1,,
9021021483360000,Västansjö skola,61.205713,16.466641,1,,
9021021483361000,Korsbacken,61.543455,16.409885,1,,
9021021483362000,Brönars,61.321093,16.274591,1,,
9021021483363000,Högmyr,61.596115,16.297308,1,,
9021021483364000,Mårdnäs,61.264387,16.636505,1,,
9021021483365000,Säll-Pelles,61.291675,16.555205,1,,
9021021483366000,Stocksätter,61.329203,16.465559,1,,
9021021483367000,Tvättnäs,61.297075,16.520687,1,,
9021021483368000,Ön,61.378392,16.403034,1,,
9021021483370000,Bollnäs resecentrum,61.350483,16.392673,1,,
9021021483371000,Våggatan,61.347398,16.392260,1,,
9021021483372000,Tybergs,61.534222,16.369665,1,,
9021021483373000,Hamre,61.527847,16.363986,1,,
9021021483375000,Framnäs väg 83,61.370174,16.392107,1,,
9021021483376000,Hällbogården,61.223858,16.420972,1,,
9021021483377000,Hammaren,61.223989,16.557132,1,,
9021021483378000,Lökene,61.572824,16.479570,1,,
9021021483379000,Östergården,61.571589,16.510806,1,,
9021021483380000,Bybergs,61.570709,16.493302,1,,
9021021483381000,Erk-Pers,61.572223,16.530301,1,,
9021021483382000,Britas,61.575418,16.553680,1,,
9021021483383000,Asplunds,61.574808,16.564940,1,,
9021021483384000,Igeltjärnsviken,61.575637,16.572396,1,,
9021021483385000,Nylands,61.569650,16.405745,1,,
9021021483386000,Spesses,61.572662,16.404354,1,,
9021021483387000,Vikingavallen,61.527744,16.378118,1,,
9021021483388000,Granbergshöjden,61.330557,16.387295,1,,
9021021483391000,Jon-Jons,61.402430,16.521089,1,,
9021021483392000,Stenbomsgatan,61.350777,16.399406,1,,
9021021483393000,Lillängesvägen,61.317365,16.389254,1,,
9021021483394000,Granbergsskolan,61.333922,16.382987,1,,
9021021483395000,Kilafors ICA,61.229724,16.561979,1,,
9021021483396000,Målargatan,61.356470,16.381869,1,,
9021021483397000,Björktjäratjärn,61.360458,16.381082,1,,
9021021483398000,Ängen,61.356859,16.357296,1,,
9021021483399000,Bollnäs Hedenområdet,61.356404,16.354391,1,,
9021021483402000,Stadshuspassagen,61.346146,16.391153,1,,
9021021483403000,Varpen,61.339490,16.394672,1,,
9021021483408000,Renshammarskolan,61.358693,16.425428,1,,
9021021483414000,Tomta,61.477840,16.378328,1,,
9021021483478000,Bollnäs folkhögsskola,61.342985,16.391673,1,,
9021021483501000,Sävstaås,61.345772,16.342508,1,,
9021021483833000,Hedenvägen,61.351457,16.345931,1,,
9021021484014000,Blomberget,61.767250,16.878706,1,,
9021021484015000,Hällvägen,61.762814,16.875540,1,,
9021021484016000,Näsviken skolan,61.758196,16.869301,1,,
9021021484017000,Näsviken Centrum,61.756718,16.866618,1,,
9021021484018000,Lindefallet,61.488234,16.937049,1,,
9021021484019000,Östra Bölan,61.492969,16.943980,1,,
9021021484020000,Vedmora,61.525894,16.956122,1,,
9021021484021000,Tosätter,61.529725,16.960493,1,,
9021021484022000,Måsta,61.708183,17.072143,1,,
9021021484023000,Kymo,61.531760,16.967054,1,,
9021021484024000,Grimbo,61.535309,16.976060,1,,
9021021484025000,Enångers skola,61.544319,17.003029,1,,
9021021484026000,Enånger kiosken,61.547459,17.005163,1,,
9021021484027000,Notdragarvägen,61.551552,17.013296,1,,
9021021484028000,Kyrkmyravägen,61.548464,17.000123,1,,
9021021484029000,Enånger Oppänge,61.549328,16.999874,1,,
9021021484030000,Hålsänge,61.568938,17.025171,1,,
9021021484031000,Njöte,61.591055,17.027828,1,,
9021021484032000,Skarplycka,61.596446,17.038157,1,,
9021021484033000,Betaniavägen,61.601606,17.048027,1,,
9021021484034000,Backa,61.606463,17.054761,1,,
9021021484035000,Fegärde,61.611453,17.050815,1,,
9021021484036000,Njutånger affären,61.613649,17.050150,1,,
9021021484037000,Njutånger kyrka,61.617936,17.050510,1,,
9021021484038000,Prästtjärn,61.622959,17.053728,1,,
9021021484039000,Långviken,61.630984,17.059445,1,,
9021021484040000,Brunnsnäs,61.635404,17.073544,1,,
9021021484042000,Forsavägen,61.640903,17.076675,1,,
9021021484043000,Kryllbo,61.640305,17.083064,1,,
9021021484044000,Iggesunds bruk,61.640730,17.086647,1,,
9021021484048000,Iggesund Konsum,61.642455,17.079719,1,,
9021021484050000,Iggesund Kyrkogården,61.650056,17.083580,1,,
9021021484051000,Trekanten,61.653292,17.084015,1,,
9021021484052000,Dammsveden,61.700670,17.072289,1,,
9021021484053000,Håstaängen,61.714160,17.085682,1,,
9021021484054000,Västra vägen,61.716665,17.094202,1,,
9021021484055000,Vallvägen,61.719324,17.097679,1,,
9021021484056000,Tunbacka,61.722776,17.100964,1,,
9021021484057000,Kyrkbacken,61.725510,17.102251,1,,
9021021484058000,Hudiksvall Sjukhuset,61.729876,17.100789,1,,
9021021484059000,Hudiksvalls station,61.724895,17.108430,1,,
9021021484062000,Bowlinghallen,61.732801,17.103693,1,,
9021021484063000,Solbacka,61.737607,17.104198,1,,
9021021484064000,Sandvalla,61.742888,17.117973,1,,
9021021484065000,Ullsäter Ind,61.748118,17.120050,1,,
9021021484066000,Sanna,61.752691,17.120416,1,,
9021021484067000,Fläsbro,61.760337,17.122333,1,,
9021021484068000,Hagmyren,61.767925,17.124722,1,,
9021021484069000,Masbo,61.772521,17.126472,1,,
9021021484072000,Välsta gård,61.798992,17.170937,1,,
9021021484073000,Steg,61.839471,17.195654,1,,
9021021484074000,Silja,61.803832,17.178738,1,,
9021021484075000,Välsta,61.805429,17.185941,1,,
9021021484076000,Malsta,61.809204,17.196961,1,,
9021021484077000,Malsta skola,61.809905,17.203044,1,,
9021021484078000,Via,61.817129,17.206711,1,,
9021021484079000,Lurbacken,61.819909,17.209533,1,,
9021021484080000,Långsjön-Via,61.829066,17.229331,1,,
9021021484081000,Stamnäs,61.833239,17.255969,1,,
